DataYear,ID,PropertyName,ReportingStatus,Address,ZIPCode,ChicagoEnergyRating,ExemptFromChicagoEnergyRating,CommunityArea,PrimaryPropertyType,GrossFloorArea,YearBuilt,NumberOfBuildings,WaterUse,ENERGYSTARScore,ElectricityUse,NaturalGasUse,DistrictSteamUse,DistrictChilledWaterUse,AllOtherFuelUse,SiteEUI,SourceEUI,WeatherNormalizedSiteEUI,WeatherNormalizedSourceEUI,TotalGHGEmissions,GHGIntensity,Latitude,Longitude,Location,Row_ID,Wards,CommunityAreas,ZipCodes,CensusTracts,HistoricalWards2003-2015
2021,100001,Ascension SMEMC St Elizabeth Campus,Submitted,1431 N Claremont Ave,60622,nan,True,WEST TOWN,Mixed Use Property,505417.0,1928.0,3,,,18651203.3,34208710.8,0.0,0.0,,171.0,285.2,175.3,286.7,4480.9,14.5,41.90743588,-87.68538017,"(41.90743588, -87.68538017)",2021-100001,41,25,21560.0,516,24
2020,100002,Clemente Community Academy HS -CPS,Submitted Data,1147 N Western Ave,60622,2.0,False,WEST TOWN,K-12 School,354518.0,1974.0,1,,18,23008936.8,1664640.0,,,,69.6,186.7,71.8,192.7,3679.4,10.4,41.90261979,-87.68613497,"(41.90261979, -87.68613497)",2020-100002,41,25,21560.0,541,24
2021,100019,411 S Wells,Submitted,411 - 415 S Wells St,60607,4.0,False,LOOP,Office,58200.0,1908.0,1,,87,1261422.2,1798578.8,0.0,0.0,,52.6,93.1,55.8,95.8,275.7,4.7,41.87642552,-87.63335549,"(41.87642552, -87.63335549)",2021-100019,26,38,14917.0,92,48
2021,100068,Joffco Square,Submitted,555 W Roosevelt Rd,60607,2.0,False,NEAR WEST SIDE,Other - Mall,173704.0,2008.0,1,,,8553112.9,144608.0,0.0,0.0,,91.4,253.1,95.1,263.2,1229.3,12.9,41.866867,-87.64144957,"(41.866867, -87.64144957)",2021-100068,48,29,14917.0,97,48
2018,100148,The Jeffery Cyril Building,Submitted,7144-48 S Jeffery Blvd,60649,1.0,False,SOUTH SHORE,Multifamily Housing,56412.0,1927.0,1,6938.0,15,1113884.9,7876653.7,,,,159.4,201.9,160.7,203.3,603.7,10.7,41.76259226,-87.57231648,"(41.76259226, -87.57231648)",2018-100148,33,39,22538.0,453,32
2021,100179,Saint Anthony Hospital - Main Hospital,Submitted,2875 W 19th St,60623,2.5,False,SOUTH LAWNDALE,Hospital (General Medical & Surgical),450612.0,1897.0,1,,56,23712134.1,44202524.7,0.0,0.0,,284.1,471.9,290.8,473.5,5734.5,24.0,41.85513555,-87.6978405,"(41.85513555, -87.6978405)",2021-100179,1,32,21569.0,203,29
2021,100211,73 East Lake (sl75),Submitted,73 E LAKE ST,60601,4.0,False,LOOP,Multifamily Housing,407921.0,2014.0,1,,82,7095605.4,14925477.7,0.0,0.0,,73.8,119.0,78.3,123.8,1806.2,6.0,41.885241,-87.62546943,"(41.885241, -87.62546943)",2021-100211,36,38,14309.0,580,22
2021,100252,Roseland Place,Submitted,10426  S MICHIGAN AVE,60628,4.0,False,ROSELAND,Multifamily Housing,47039.0,2011.0,1,,91,1547175.2,80334.7,0.0,0.0,,34.6,93.9,33.8,91.3,225.2,4.8,41.69755188,-87.61477587,"(41.69755188, -87.61477587)",2021-100252,43,45,21861.0,237,30
2021,100256,Marie Sklodowska Curie Metropolitan High School,Submitted,4975 S Archer Ave,60632,1.5,False,ARCHER HEIGHTS,K-12 School,415577.0,1973.0,2,,33,19594396.1,8824600.4,0.0,0.0,,68.4,154.3,72.5,161.0,3267.3,7.9,41.802759,-87.722671,"(41.802759, -87.722671)",2021-100256,8,54,22248.0,698,49
2021,100317,C5504WAB (22251),Submitted,5500 5518 S WABASH AVE,60637,3.5,False,WASHINGTON PARK,Multifamily Housing,72332.0,1904.0,1,,51,676207.2,6874633.9,0.0,0.0,,104.4,126.0,112.2,133.6,461.7,6.4,41.78046327,-87.6053081,"(41.78046327, -87.6053081)",2021-100317,4,9,22260.0,470,53
2021,100320,"IMDC LAPORTE, LLC",Submitted,4039 4051 N LAPORTE AVE,60641,4.0,False,PORTAGE PARK,Multifamily Housing,96000.0,1934.0,1,,94,344536.9,4745400.4,0.0,0.0,,53.0,62.0,58.8,67.8,301.3,3.1,41.94615136,-87.74707694,"(41.94615136, -87.74707694)",2021-100320,21,15,22618.0,360,25
2021,100332,Robert Lindblom Math & Science Academy HS,Submitted,6130 S Wolcott Ave,60636,3.0,False,WEST ENGLEWOOD,K-12 School,305788.0,1919.0,1,,65,5926012.8,16418689.8,0.0,0.0,,73.1,110.6,80.5,117.5,1718.5,5.6,41.78206597,-87.67220934,"(41.78206597, -87.67220934)",2021-100332,3,65,22257.0,275,44
2020,100334,,Submitted Data,860  N DEWITT PL,60611,1.0,False,NEAR NORTH SIDE,Multifamily Housing,136600.0,1967.0,1,,3,3081216.8,18344199.8,,,,172.8,224.9,180.5,231.3,1455.2,11.7,41.89579275,-87.62247957,"(41.89579275, -87.62247957)",2020-100334,11,37,21182.0,158,22
2021,100346,2609 W. Belmont Apartments,Submitted,2609 W BELMONT AVE,60618,3.0,False,AVONDALE,Multifamily Housing,104796.0,2013.0,1,,70,2870150.5,2048614.3,0.0,0.0,,56.4,116.8,58.8,119.4,518.7,5.9,41.94672055,-87.70319673,"(41.94672055, -87.70319673)",2021-100346,20,16,21538.0,372,2
2020,100372,Holy Cross Hospial,Submitted Data,2701 W 68th St,60629,4.0,False,CHICAGO LAWN,Hospital (General Medical & Surgical),409910.0,1911.0,1,,76,5050093.6,130271002.2,,,,330.1,368.2,,,7707.5,18.8,41.770003,-87.690841,"(41.770003, -87.690841)",2020-100372,31,64,21867.0,383,44
2021,100375,C3600FRA (22112),Submitted,3600 3612 W FRANKLIN BLVD,60624,2.5,False,HUMBOLDT PARK,Multifamily Housing,63514.0,1917.0,1,,60,692864.6,4563750.8,0.0,0.0,,82.8,106.0,88.9,111.5,341.4,5.4,41.8808242,-87.72327934,"(41.8808242, -87.72327934)",2021-100375,23,27,21572.0,658,11
2021,100393,Ford City Mall,Submitted,7601 S Cicero Ave,60652,1.0,False,WEST LAWN,Enclosed Mall,1939923.0,1950.0,1,,,125127286.5,11103883.6,0.0,0.0,,157.5,418.6,159.1,420.2,18461.3,21.3,41.75582921,-87.73699268,"(41.75582921, -87.73699268)",2021-100393,30,63,4300.0,318,23
2020,100395,Daley,Submitted Data,7500 S Pulaski Ave,60652,4.0,False,WEST LAWN,College/University,589565.0,1970.0,10,,,14030891.1,15240999.5,,,,58.4,110.2,61.2,113.3,2999.3,6.0,41.75629268,-87.72224,"(41.75629268, -87.72224)",2020-100395,30,63,4300.0,318,23
2021,100396,St. Rita of Cascia High School,Submitted,7740 S Western Ave,60620,3.0,False,ASHBURN,K-12 School,435758.0,1960.0,1,,69,5133442.7,14341300.3,0.0,0.0,,70.5,106.5,75.9,112.2,1494.9,5.4,41.75293115,-87.68297148,"(41.75293115, -87.68297148)",2021-100396,30,69,4300.0,498,6
2021,100397,William J Bogan High School,Submitted,3939 W 79th St,60652,4.0,False,ASHBURN,K-12 School,185411.0,1959.0,2,,81,2540682.3,8987259.8,0.0,0.0,,62.2,89.3,68.5,95.9,840.2,4.5,41.749459,-87.720146,"(41.749459, -87.720146)",2021-100397,30,69,4300.0,199,6
2021,100417,Marist High School,Submitted,4200 W 115th St,60655,4.0,False,MOUNT GREENWOOD,K-12 School,486336.0,1963.0,2,,74,5182933.8,9641852.0,0.0,0.0,,61.3,101.8,66.7,107.5,1252.4,5.2,41.68539508,-87.72369345,"(41.68539508, -87.72369345)",2021-100417,42,73,4447.0,264,33
2021,100418,Morgan Park High School,Submitted,1744 W Pryor Ave,60643,4.0,False,MORGAN PARK,K-12 School,269480.0,1914.0,2,,82,5779975.8,7223420.1,0.0,0.0,,48.3,88.2,51.4,91.5,1209.2,4.5,41.69164701,-87.66578473,"(41.69164701, -87.66578473)",2021-100418,42,74,22212.0,378,33
2021,100429,The John Hancock Center,Submitted,875 N Michigan Ave,60611,1.5,False,NEAR NORTH SIDE,Mixed Use Property,2620946.0,1970.0,1,,32,151708916.1,0.0,0.0,0.0,,66.2,185.4,66.2,185.4,21668.0,9.5,41.89880204,-87.62297591,"(41.89880204, -87.62297591)",2021-100429,11,37,21182.0,233,22
2017,100431,1100 N. Clark St.,Submitted,1100 N. CLARK ST,60610,nan,,NEAR NORTH SIDE,Automobile Dealership,131250.0,1989.0,1,,,1643147.0,1496600.0,,,,23.9,51.3,23.9,51.3,383.3,2.9,41.90237775,-87.63184484,"(41.90237775, -87.63184484)",2017-100431,11,37,14926.0,310,22
2021,100433,Ascension SMEMC St Mary Campus.,Submitted,2233 W Division St,60622,3.5,False,WEST TOWN,Hospital (General Medical & Surgical),981153.0,1976.0,5,,56,68215467.7,94612164.0,0.0,0.0,,233.5,416.3,237.6,414.3,14768.3,21.2,41.90251573,-87.68336086,"(41.90251573, -87.68336086)",2021-100433,11,25,21560.0,541,16
2021,100438,Palmolive Building Condominium Association,Submitted,913 - 921 N Michigan Ave,60611,1.0,False,NEAR NORTH SIDE,Multifamily Housing,436505.0,1929.0,1,,7,21833029.7,27913149.5,0.0,0.0,,125.2,227.7,128.2,230.8,4600.9,11.6,41.899795,-87.624109,"(41.899795, -87.624109)",2021-100438,11,37,21182.0,233,22
2021,100447,211 E. Chicago Ave.,Submitted,211 E Chicago Ave,60611,4.0,False,NEAR NORTH SIDE,Office,404162.3,1965.0,1,,85,12244337.3,13685073.5,0.0,0.0,,65.8,123.5,70.2,128.0,2475.7,6.3,41.89644968,-87.62256575,"(41.89644968, -87.62256575)",2021-100447,11,37,21182.0,158,22
2021,100448,Hilton Chicago MM Suites,Submitted,198 E Delaware Pl,60611,4.0,False,NEAR NORTH SIDE,Hotel,358850.0,1989.0,1,,87,10948988.6,17392314.2,0.0,0.0,,90.0,155.4,92.5,156.3,2487.6,7.9,41.89956332,-87.62215183,"(41.89956332, -87.62215183)",2021-100448,11,37,21182.0,233,22
2020,100470,Lawson Partners,Submitted Data,30 W Chicago,60654,2.5,False,NEAR NORTH SIDE,Multifamily Housing,259349.0,1930.0,1,,55,7114992.6,24162555.1,,,,120.6,174.6,127.4,181.9,2393.8,9.2,41.896703,-87.629373,"(41.896703, -87.629373)",2020-100470,11,37,4446.0,230,22
2021,100485,"1900 W. Farwell, LLC",Submitted,1900 1910 W FARWELL AVE,60626,2.5,False,ROGERS PARK,Multifamily Housing,59000.0,1915.0,1,,54,749302.2,3843190.8,0.0,0.0,,77.8,104.0,85.2,111.4,311.2,5.3,42.01036185,-87.66829765,"(42.01036185, -87.66829765)",2021-100485,5,10,21853.0,358,3
2021,100533,TEAM Englewood Community Academy High School,Submitted,6201 S Stewart Ave,60621,1.0,False,ENGLEWOOD,K-12 School,188800.0,1979.0,1,,12,8182095.4,14414519.2,0.0,0.0,,119.7,201.5,128.1,210.3,1934.2,10.2,41.78205573,-87.63426731,"(41.78205573, -87.63426731)",2021-100533,4,66,21559.0,166,53
2018,100572,Perspectives Charter Schools - Auburn Gresham Campus,Submitted,8131 S May Street,60620,1.5,False,AUBURN GRESHAM,K-12 School,300000.0,1925.0,1,9179.0,36,5900842.5,23999473.7,,,,99.7,139.1,95.8,135.1,2256.4,7.5,41.74538215,-87.65152078,"(41.74538215, -87.65152078)",2018-100572,13,70,21554.0,487,18
2020,100598,Farragut Career Academy HS -CPS,Submitted Data,2345 S Christiana Ave,60623,1.0,False,SOUTH LAWNDALE,K-12 School,359255.0,1909.0,1,,4,27468314.6,9309760.2,,,,102.4,241.3,106.1,248.7,4781.4,13.3,41.84837118,-87.70825259,"(41.84837118, -87.70825259)",2020-100598,28,32,21569.0,291,14
2021,100631,Gurdon S Hubbard High School,Submitted,6200 S Hamlin Ave,60629,3.5,False,WEST LAWN,K-12 School,218200.0,1929.0,3,,73,3470703.5,11535019.9,0.0,0.0,,68.8,100.0,75.4,107.0,1108.4,5.1,41.77984105,-87.71918715,"(41.77984105, -87.71918715)",2021-100631,6,63,21867.0,339,23
2021,100637,Addison Towers,Submitted,510 534 W ADDISON ST,60613,1.0,False,LAKE VIEW,Multifamily Housing,68667.0,1920.0,1,,13,1543371.1,6626318.2,0.0,0.0,,119.0,164.3,130.1,175.9,572.4,8.3,41.95402016,-87.6620278,"(41.95402016, -87.6620278)",2021-100637,18,57,21186.0,725,13
2021,100674,The Lofts at Arthington,Submitted,3301 W Arthington St,60624,4.0,False,NORTH LAWNDALE,Multifamily Housing,228897.0,1909.0,2,,100,2179752.8,8474433.6,0.0,0.0,,46.5,65.5,48.8,66.6,761.4,3.3,41.87000549,-87.70831909,"(41.87000549, -87.70831909)",2021-100674,14,30,21572.0,98,36
2018,100729,801 S. Canal,Submitted,801 S. Canal,60607,4.0,False,NEAR WEST SIDE,Office,744282.0,1989.0,1,12171.0,66,44518240.6,1586998.0,,,,61.9,169.7,61.9,169.7,7490.5,10.1,41.8712255,-87.63869278,"(41.8712255, -87.63869278)",2018-100729,26,29,14917.0,97,48
2021,100730,Congress Center,Submitted,525 W Van Buren,60607,3.5,False,NEAR WEST SIDE,Office,539738.0,2000.0,1,,75,23210867.0,0.0,0.0,0.0,,44.0,123.3,44.9,125.6,3315.1,6.3,41.87630749,-87.6401831,"(41.87630749, -87.6401831)",2021-100730,26,29,14917.0,97,48
2021,100851,600 West Chicago & 900 N Kingsbury,Submitted,600 W Chicago,60654,1.0,False,NEAR NORTH SIDE,Office,2266502.0,1908.0,1,,29,171003946.7,22933565.4,0.0,28653027.5,,103.7,246.4,103.5,246.4,27152.0,12.6,41.896501,-87.64288,"(41.896501, -87.64288)",2021-100851,46,37,14926.0,617,41
2019,100856,United Center,Submitted,1901 W Madison St,60612,2.0,False,NEAR WEST SIDE,Indoor Arena,960000.0,1994.0,2,206239.0,,102653875.6,15169580.2,,,,122.7,316.0,122.4,,17883.7,18.6,41.88067672,-87.67418207,"(41.88067672, -87.67418207)",2019-100856,46,29,21184.0,90,41
2017,100858,Juvenile Courthouse,Submitted,2245 W. Ogden Ave.,60612,nan,,NEAR WEST SIDE,Courthouse,412596.0,1993.0,1,,63,26369888.0,12757466.0,,,,94.8,233.2,99.8,238.4,5553.3,13.5,41.86761641,-87.68103599,"(41.86761641, -87.68103599)",2017-100858,46,29,21184.0,5,48
2021,100867,Rush University Medical Center,Submitted,1653 W Congress Pkwy,60612,1.5,False,NEAR WEST SIDE,Hospital (General Medical & Surgical),5863656.0,1982.0,19,,33,455006577.6,288144811.2,236853013.5,0.0,,251.6,478.0,252.9,474.9,96018.4,24.7,41.875121,-87.668005,"(41.875121, -87.668005)",2021-100867,46,29,21184.0,90,48
2021,100946,New Englewood Terrace Apartments,Submitted,6425 S Lowe,60621,3.5,False,ENGLEWOOD,Multifamily Housing,379680.0,1966.0,1,,71,5192681.9,18961246.0,0.0,0.0,,74.2,105.8,79.2,111.0,1748.8,5.4,41.77724863,-87.64053938,"(41.77724863, -87.64053938)",2021-100946,4,66,21559.0,435,19
2021,100947,C7131YAT (22222),Submitted,7131 7143 S YATES BLVD,60649,2.0,False,SOUTH SHORE,Multifamily Housing,70000.0,1930.0,1,,50,1058982.4,5524702.4,0.0,0.0,,94.1,125.2,100.5,132.0,444.7,6.4,41.76259226,-87.57231648,"(41.76259226, -87.57231648)",2021-100947,33,39,22538.0,453,32
2019,101013,7332 N. Damen,Submitted,7320 7332 N DAMEN AVE,60645,4.0,False,ROGERS PARK,Multifamily Housing,55000.0,1922.0,1,,74,763585.1,5789205.1,,,,119.1,149.4,118.1,,434.5,7.9,42.00880199,-87.69502812,"(42.00880199, -87.69502812)",2019-101013,27,20,22528.0,42,42
2021,101030,Oakwood Shores Sr,Submitted,3750  S COTTAGE GROVE AVE,60653,4.0,False,OAKLAND,Multifamily Housing,76017.0,2012.0,1,,85,1742092.1,2028419.9,0.0,0.0,,49.6,92.2,51.4,92.4,356.6,4.7,41.82021138,-87.61246867,"(41.82021138, -87.61246867)",2021-101030,10,4,4301.0,583,1
2021,101032,Parkview Towers Apartments,Submitted,5110  S DR MARTIN LUTHER KING JR DR,60615,1.5,False,WASHINGTON PARK,Multifamily Housing,118232.0,1969.0,1,,39,2089955.8,10648206.6,0.0,0.0,,111.4,149.0,119.7,157.7,864.1,7.6,41.80224043,-87.60332678,"(41.80224043, -87.60332678)",2021-101032,33,8,21192.0,147,1
2021,101038,FBI Chicago Field Office,Submitted,2111 W Roosevelt Rd,60608,4.0,False,NEAR WEST SIDE,Office,785947.0,2006.0,1,,88,23130480.3,13599970.7,0.0,0.0,,80.1,172.3,82.7,173.8,4028.6,8.8,41.86578401,-87.67979313,"(41.86578401, -87.67979313)",2021-101038,23,29,14920.0,96,48
2020,101039,Marshall Metro HS -CPS,Submitted Data,3250 W Adams St,60624,4.0,False,EAST GARFIELD PARK,K-12 School,366981.0,1916.0,1,,81,5576535.3,16240537.7,,,,59.5,89.0,64.8,94.7,1732.9,4.7,41.87909618,-87.70740611,"(41.87909618, -87.70740611)",2020-101039,23,28,21572.0,765,11
2020,101043,Manley Career Academy HS -CPS,Submitted Data,2935 W Polk St,60612,4.0,False,EAST GARFIELD PARK,K-12 School,213820.0,1928.0,1,,72,2801592.7,13167669.7,,,,74.7,101.3,80.4,107.3,1136.6,5.3,41.87077924,-87.69973292,"(41.87077924, -87.69973292)",2020-101043,23,28,21184.0,714,11
2021,101090,Spring Grove Apartments,Submitted,4554  S DREXEL BLVD,60653,4.0,False,KENWOOD,Multifamily Housing,95927.0,1966.0,1,,65,1861246.0,6648393.6,0.0,0.0,,95.5,136.9,100.9,140.8,619.0,6.9,41.82021138,-87.61246867,"(41.82021138, -87.61246867)",2021-101090,10,4,4301.0,583,1
2021,101179,Shriners Hospital for Children-Chicago,Submitted,2211 N Oak Park Ave,60707,2.5,False,MONTCLARE,Hospital (General Medical & Surgical),362866.0,1981.0,1,,38,15594641.5,35889902.8,0.0,0.0,,262.1,414.1,259.1,405.8,4133.6,21.0,41.91969032,-87.79508098,"(41.91969032, -87.79508098)",2021-101179,7,18,4454.0,136,39
2015,101181,Austin 1900 Building,Submitted,1900 n. Austin,60639,nan,,AUSTIN,Distribution Center,750000.0,1962.0,1,,97,4282401.0,19226407.0,,,,31.3,44.8,33.1,46.9,1882.0,2.5,41.91551974,-87.7791739,"(41.91551974, -87.7791739)",2015-101181,7,26,22615.0,597,52
2020,101185,Digital Lakeside,Submitted Data,350 E Cermak,60616,1.0,False,NEAR SOUTH SIDE,Data Center,1262150.0,1912.0,1,,1,987573211.0,,2620722.7,363190557.9,,1110.3,2538.5,1109.8,2538.1,173705.5,142.1,41.85368588,-87.61835923,"(41.85368588, -87.61835923)",2020-101185,9,34,21194.0,374,48
2020,101199,DuSable Campus -CPS,Submitted Data,4934 S Wabash Ave,60615,4.0,False,GRAND BOULEVARD,K-12 School,410375.0,1969.0,1,,77,4913102.8,23747330.9,,,,69.8,94.3,77.4,102.7,2028.1,4.9,41.80402453,-87.62487175,"(41.80402453, -87.62487175)",2020-101199,9,4,21192.0,449,12
2021,101217,850 Eastwood,Submitted,850  W EASTWOOD AVE,60640,4.0,False,UPTOWN,Multifamily Housing,244164.0,1992.0,1,,86,4474060.1,12495905.6,0.0,0.0,,69.5,105.0,72.8,107.5,1302.7,5.3,41.97223008,-87.6645957,"(41.97223008, -87.6645957)",2021-101217,18,31,22616.0,633,37
2021,101226,Montclare Senior Residences of Avalon Park Phase I,Submitted,1200  E 78TH ST,60619,3.5,False,AVALON PARK,Multifamily Housing,113616.0,2009.0,1,,77,1819871.7,4436749.0,0.0,0.0,,67.6,105.3,71.8,109.7,495.6,5.4,41.74401302,-87.60549928,"(41.74401302, -87.60549928)",2021-101226,35,40,21546.0,140,31
2021,101283,Chicago-Central,Submitted,4058 W Melrose St,60641,4.0,False,IRVING PARK,Other - Specialty Hospital,119087.0,2000.0,0,,,6392866.5,10847944.0,0.0,0.0,,144.8,246.0,158.5,260.3,1489.3,12.5,41.94024287,-87.72896111,"(41.94024287, -87.72896111)",2021-101283,21,16,22618.0,329,7
2021,101343,The Resurrection Project - Casa Morelos,Submitted,2015  S MORGAN ST,60608,4.0,False,LOWER WEST SIDE,Multifamily Housing,64644.0,2009.0,1,,90,1101240.1,1992554.0,0.0,0.0,,56.9,95.1,58.8,95.8,263.1,4.8,41.84915346,-87.67089596,"(41.84915346, -87.67089596)",2021-101343,26,33,14920.0,126,8
2017,101356,DePaul College Prep,Submitted,3633 N. California,60618,nan,,IRVING PARK,K-12 School,202400.0,1961.0,1,,68,3642054.0,10588411.0,,,,70.3,111.4,70.3,111.4,1235.8,6.1,41.94809411,-87.69742569,"(41.94809411, -87.69742569)",2017-101356,20,16,21538.0,372,2
2021,101363,1101 E Hyde Park,Submitted,1101 1123 E HYDE PARK BLVD,60615,4.0,False,HYDE PARK,Multifamily Housing,69631.0,1923.0,1,,69,425667.5,4119300.0,0.0,0.0,,65.3,79.2,70.4,84.0,279.6,4.0,41.80224043,-87.60332678,"(41.80224043, -87.60332678)",2021-101363,33,8,21192.0,147,1
2021,101368,Addison Mall LLC,Submitted,2901 W ADDISON ST,60618,3.0,False,AVONDALE,Strip Mall,68831.0,1988.0,1,,,3344529.1,4769874.2,0.0,0.0,,117.9,208.8,124.0,215.2,731.0,10.6,41.94525218,-87.7010892,"(41.94525218, -87.7010892)",2021-101368,20,22,21538.0,425,2
2020,101396,,Submitted Data,4640 N SHERIDAN RD,60640,3.5,False,UPTOWN,Multifamily Housing,216000.0,1974.0,1,,52,3374078.9,19055100.1,,,,103.8,136.4,109.0,141.8,1538.7,7.1,41.96652528,-87.65508031,"(41.96652528, -87.65508031)",2020-101396,39,31,22616.0,241,37
2021,101407,CA 23,Submitted,15 23 N ABERDEEN ST,60607,4.0,False,NEAR WEST SIDE,Multifamily Housing,120905.0,2012.0,1,,100,246646.7,3805228.7,0.0,0.0,,33.5,38.8,36.9,42.0,237.3,2.0,41.87399385,-87.651678,"(41.87399385, -87.651678)",2021-101407,48,29,14917.0,97,8
2021,101409,238-Senior Suites of Kelvyn Park,Submitted,2715  N CICERO AVE,60639,4.0,False,BELMONT CRAGIN,Senior Living Community,76000.0,2008.0,1,,66,1820793.3,3926899.8,0.0,0.0,,75.6,121.3,80.8,125.8,468.6,6.2,41.92039417,-87.75616669,"(41.92039417, -87.75616669)",2021-101409,44,19,22615.0,307,4
2021,101420,Chicago Academy Elementary School,Submitted,3400 N Austin Ave,60634,1.0,False,DUNNING,K-12 School,250844.0,1920.0,2,,29,6881656.0,15723279.2,0.0,0.0,,90.1,142.6,98.7,148.3,1818.0,7.2,41.94253753,-87.77737003,"(41.94253753, -87.77737003)",2021-101420,44,17,22254.0,459,25
2020,101448,,Submitted Data,1401  W ROOSEVELT RD,60608,3.5,False,NEAR WEST SIDE,Multifamily Housing,69385.0,2006.0,1,,57,1805282.4,2922058.4,,,,68.1,117.1,69.5,118.6,437.0,6.3,41.84915346,-87.67089596,"(41.84915346, -87.67089596)",2020-101448,26,33,14920.0,126,8
2021,101471,Brompton,Submitted,701 709 W BROMPTON AVE,60657,4.0,False,LAKE VIEW,Multifamily Housing,53469.0,1980.0,1,,87,1395422.0,1133617.5,0.0,0.0,,47.3,95.3,50.7,103.5,259.5,4.9,41.9398511,-87.65844752,"(41.9398511, -87.65844752)",2021-101471,25,57,4449.0,710,38
2020,101492,Wright College,Submitted Data,4300 N Narragansett,60634,3.0,False,DUNNING,College/University,769961.0,1993.0,4,,,16442304.7,34215496.3,,,,93.1,150.6,97.2,154.9,4383.5,8.1,41.95813043,-87.78958012,"(41.95813043, -87.78958012)",2020-101492,19,17,22254.0,442,25
2021,101507,5148 N Kedzie Ave,Submitted,5148 N KEDZIE AVE,60625,2.0,False,NORTH PARK,College/University,113740.0,1958.0,1,,,4515638.7,10161149.7,0.0,0.0,,129.0,205.0,142.2,218.8,1184.7,10.4,41.97507877,-87.70870589,"(41.97507877, -87.70870589)",2021-101507,38,13,21849.0,167,28
2014,101508,Northeastern Illinois University,Submitted,5500 N. Saint Louis Avenue,60625,nan,,NORTH PARK,College/University,1258489.0,1961.0,19,,,53531039.0,88910222.0,,,,113.0,208.0,,,15478.0,12.3,41.98039877,-87.72026611,"(41.98039877, -87.72026611)",2014-101508,38,13,21849.0,167,28
2021,101519,239-Senior Suites of Marquette Village,Submitted,7430  S ROCKWELL ST,60629,4.0,False,CHICAGO LAWN,Senior Living Community,77682.0,2010.0,1,,83,2096145.1,3015900.0,0.0,0.0,,65.8,116.3,68.9,118.5,459.6,5.9,41.77517105,-87.71389848,"(41.77517105, -87.71389848)",2021-101519,6,63,21867.0,238,23
2020,101527,Sankofa House,Submitted Data,4041  W ROOSEVELT RD,60624,4.0,False,NORTH LAWNDALE,Multifamily Housing,67988.0,2008.0,1,,88,981318.5,3492299.0,,,,65.8,94.3,68.5,97.2,338.6,5.0,41.8808242,-87.72327934,"(41.8808242, -87.72327934)",2020-101527,23,27,21572.0,658,11
2017,101537,4532 - 42 S. Drexel,Submitted,4532 - 42 S. Drexel Blvd.,60653,nan,,KENWOOD,Multifamily Housing,62469.0,1960.0,1,,12,2492159.0,1587017.0,,,,65.3,151.9,69.9,165.0,545.1,8.7,41.82021138,-87.61246867,"(41.82021138, -87.61246867)",2017-101537,10,4,4301.0,583,1
2021,101545,Reside at 849,Submitted,849 863 W BUENA AVE,60613,3.5,False,UPTOWN,Multifamily Housing,51163.0,1925.0,1,,57,509235.2,3912672.7,0.0,0.0,,86.4,108.2,95.0,116.8,280.6,5.5,41.95402016,-87.6620278,"(41.95402016, -87.6620278)",2021-101545,18,57,21186.0,725,13
2019,101547,Mercy Chicago - Hospital,Submitted,2525 S Michigan Ave,60616,3.0,False,NEAR SOUTH SIDE,Hospital (General Medical & Surgical),750000.0,1968.0,1,,48,71199637.0,88085404.7,,,,212.4,389.1,211.8,,16523.7,22.0,41.84674735,-87.62133625,"(41.84674735, -87.62133625)",2019-101547,10,34,21194.0,193,48
2021,101549,Chicago Board Options Exchange,Submitted,400 S LaSalle St,60605,2.0,False,LOOP,Financial Office,348589.0,1983.0,1,,46,40861497.8,0.0,0.0,0.0,,117.2,328.2,119.7,335.2,5836.1,16.7,41.87646435,-87.63221179,"(41.87646435, -87.63221179)",2021-101549,10,38,14913.0,92,48
2021,101551,METROPOLITIAN PIER AND EXPOSITION AUTHORITY,Submitted,301 Cermak Rd,60616,3.0,False,ARMOUR SQUARE,Convention Center,9245333.0,1971.0,10,,,377253921.6,346816224.7,0.0,0.0,,78.3,153.6,81.9,157.4,72302.9,7.8,41.85284,-87.634931,"(41.85284, -87.634931)",2021-101551,26,35,21194.0,3,8
2021,101557,777 State,Submitted,2 E 8th St,60605,4.0,False,LOOP,Multifamily Housing,340887.0,1985.0,1,,69,6043842.8,17569298.8,0.0,0.0,,89.4,133.9,94.9,138.3,1796.4,6.8,41.871828,-87.627232,"(41.871828, -87.627232)",2021-101557,10,38,14913.0,368,48
2021,101559,IL0303ZZ-METCALFE FED BLDG,Submitted,77 W Jackson,60604,4.0,False,LOOP,Office,839825.0,1991.0,1,,85,31259560.0,0.0,0.0,0.0,,39.1,109.5,39.5,110.5,4464.7,5.6,41.87755536,-87.6304139,"(41.87755536, -87.6304139)",2021-101559,10,38,14912.0,92,48
2021,101560,IL0054ZZ - CLARK FEDERAL BLDG,Submitted,536 S Clark St,60605,1.5,False,LOOP,Office,635978.0,1912.0,1,,40,31117037.4,36731326.7,0.0,0.0,,106.7,197.6,111.6,200.8,6395.3,10.1,41.87500832,-87.63122808,"(41.87500832, -87.63122808)",2021-101560,10,38,14913.0,92,48
2021,101562,DePaul Center,Submitted,1 E Jackson Blvd,60604,4.0,False,LOOP,College/University,701699.0,1910.0,1,,,35523492.1,418045.0,0.0,0.0,,51.2,142.4,52.6,146.3,5095.9,7.3,41.87754201,-87.62723219,"(41.87754201, -87.62723219)",2021-101562,10,38,14912.0,367,48
2021,101567,The Monadnock Building,Submitted,53 W Jackson Blvd,60604,4.0,False,LOOP,Office,496749.0,1890.0,1,,98,5171749.2,11417963.7,0.0,0.0,,33.4,53.3,35.8,55.0,1345.1,2.7,41.87752434,-87.6295529,"(41.87752434, -87.6295529)",2021-101567,10,38,14912.0,92,48
2018,101569,Robert Morris Center,Submitted,401 S. State St.,60605,3.0,False,LOOP,Adult Education,517424.0,1893.0,1,2295.0,,14149410.5,6382643.5,,,,39.7,89.5,39.1,88.9,2693.0,5.2,41.87632131,-87.62720278,"(41.87632131, -87.62720278)",2018-101569,10,38,14913.0,367,48
2020,101572,King College Prep -CPS,Submitted Data,4445 S Drexel Blvd,60653,4.0,False,KENWOOD,K-12 School,310545.0,1971.0,1,,94,,19418899.7,,,,62.5,65.7,63.0,66.2,1031.4,3.3,41.81384927,-87.60295407,"(41.81384927, -87.60295407)",2020-101572,10,5,4301.0,398,1
2021,101579,"First Praire Shores, LLC",Submitted,2901 S King Dr,60616,1.0,False,DOUGLAS,Multifamily Housing,289267.0,1960.0,1,,22,5300838.8,31201295.6,0.0,0.0,,126.2,164.6,137.6,175.9,2414.4,8.3,41.84146488,-87.61667463,"(41.84146488, -87.61667463)",2021-101579,10,1,21194.0,560,1
2021,101592,5452 S Ellis,Submitted,5452 5466 S ELLIS AVE,60615,4.0,False,HYDE PARK,Multifamily Housing,51368.0,1900.0,1,,99,296697.3,2201283.0,0.0,0.0,,48.6,61.2,52.2,64.9,159.3,3.1,41.80224043,-87.60332678,"(41.80224043, -87.60332678)",2021-101592,33,8,21192.0,147,1
2021,101593,5034 S Woodlawn Ave,Submitted,5034 5040 S WOODLAWN AVE,60615,1.5,False,KENWOOD,Multifamily Housing,61535.0,1920.0,1,,35,457310.4,5618880.3,0.0,0.0,,98.7,116.7,107.6,125.2,363.8,5.9,41.80224043,-87.60332678,"(41.80224043, -87.60332678)",2021-101593,33,8,21192.0,147,1
2021,101643,G&A Senior Residence at Ravenswood,Submitted,1818  W PETERSON,60660,4.0,False,WEST RIDGE,Multifamily Housing,109912.0,2006.0,1,,81,1827198.3,8026147.8,0.0,0.0,,89.6,123.2,96.7,129.2,687.3,6.3,41.99090057,-87.66660744,"(41.99090057, -87.66660744)",2021-101643,16,76,4451.0,536,40
2021,101657,TLC Touhy LLC,Submitted,1329 1337 W TOUHY AVE,60626,4.0,False,ROGERS PARK,Multifamily Housing,56894.0,1967.0,1,,74,342148.2,3509535.7,0.0,0.0,,67.7,81.6,74.2,87.9,235.3,4.1,42.01036185,-87.66829765,"(42.01036185, -87.66829765)",2021-101657,5,10,21853.0,358,3
2021,101674,Presidents Plaza 2,Submitted,8700 W Bryn Mawr Ave,60631,4.0,False,OHARE,Office,953318.0,1983.0,1,,81,20828182.1,348220.9,0.0,0.0,,48.0,133.0,50.1,139.0,2993.3,6.8,41.98171896,-87.84446238,"(41.98171896, -87.84446238)",2021-101674,29,75,22243.0,64,34
2021,101676,O'Hare Plaza I,Submitted,8725- 8745 W Higgins Rd,60631,4.0,False,OHARE,Office,985092.0,1969.0,1,,83,17610775.3,19648666.4,0.0,0.0,,69.2,130.0,74.4,135.4,3558.9,6.6,41.98681144,-87.84464462,"(41.98681144, -87.84464462)",2021-101676,29,75,22243.0,64,34
2021,101679,Presidents Plaza 1,Submitted,8600 W Bryn Mawr Ave,60631,3.0,False,OHARE,Office,729676.0,1980.0,1,,67,22727376.4,263351.0,0.0,0.0,,55.1,153.1,56.1,156.0,3260.1,7.8,41.98292604,-87.84221511,"(41.98292604, -87.84221511)",2021-101679,29,75,22243.0,64,34
2021,101681,Ascension Resurrection Medical Center Campus.,Submitted,7435 W Talcott Ave,60631,2.0,False,NORWOOD PARK,Hospital (General Medical & Surgical),1511148.0,1953.0,2,,42,89145358.1,168214837.7,0.0,0.0,,234.8,388.9,237.5,386.0,21667.0,19.8,41.98632417,-87.81456571,"(41.98632417, -87.81456571)",2021-101681,29,36,22243.0,734,34
2021,101682,Triangle Plaza,Submitted,8750 W Bryn Mawr Ave,60631,4.0,False,OHARE,Office,1286867.0,1985.0,1,,83,32663584.4,74396.4,0.0,0.0,,42.6,119.0,44.7,125.1,4669.2,6.1,41.98305124,-87.84427691,"(41.98305124, -87.84427691)",2021-101682,29,75,22243.0,64,34
2021,101686,Harlem-Foster Shopping Center,Submitted,7240 W Foster Ave,60656,3.0,False,NORWOOD PARK,Strip Mall,760652.0,1958.0,3,,,15298285.5,17296956.4,0.0,0.0,,119.1,222.9,124.5,225.7,3103.7,11.3,41.974578,-87.808091,"(41.974578, -87.808091)",2021-101686,29,36,4448.0,735,34
2021,101691,Mildred Court Condominium Association,Submitted,2701 2711 N MILDRED AVE,60614,4.0,False,LINCOLN PARK,Multifamily Housing,61700.0,1920.0,1,,98,769727.1,1882710.0,0.0,0.0,,43.0,67.0,43.7,66.6,209.9,3.4,41.92201051,-87.65461957,"(41.92201051, -87.65461957)",2021-101691,34,68,21190.0,797,16
2021,101703,Algonquin #2,Submitted,1606  E 50TH PL,60615,1.0,False,KENWOOD,Multifamily Housing,59310.0,1950.0,1,,23,893606.2,6485650.1,0.0,0.0,,124.4,157.0,133.9,165.4,472.1,8.0,41.80224043,-87.60332678,"(41.80224043, -87.60332678)",2021-101703,33,8,21192.0,147,1
2021,101705,Algonquin #4,Submitted,1607  E 50TH PL,60615,1.0,False,KENWOOD,Multifamily Housing,59310.0,1950.0,1,,20,1183554.6,5977739.7,0.0,0.0,,120.7,161.7,128.7,168.3,486.5,8.2,41.80224043,-87.60332678,"(41.80224043, -87.60332678)",2021-101705,33,8,21192.0,147,1
2021,101707,111 East Wacker Drive,Submitted,111 E Wacker Dr,60601,2.0,False,LOOP,Office,1219035.0,1969.0,1,,48,42525154.9,47911280.4,0.0,0.0,,79.3,148.5,83.8,153.3,8618.5,7.6,41.8876921,-87.62356505,"(41.8876921, -87.62356505)",2021-101707,36,38,14309.0,580,22
2021,101708,233 North Michigan Avenue,Submitted,233 N Michigan Ave,60601,2.0,False,LOOP,Office,1297388.2,1972.0,1,,47,38880081.2,54170221.8,0.0,0.0,,80.1,142.7,85.2,148.1,8430.3,7.3,41.8869574,-87.62305507,"(41.8869574, -87.62305507)",2021-101708,36,38,14309.0,580,22
2021,101709,20 North Wacker Drive,Submitted,20 N Wacker Dr,60606,3.0,False,LOOP,Office,1742899.0,1929.0,1,,,47843985.2,62361078.6,0.0,0.0,,63.2,114.4,67.3,118.7,10145.7,5.8,41.88252633,-87.63747012,"(41.88252633, -87.63747012)",2021-101709,36,38,14914.0,92,22
2021,101710,Algonquin #1,Submitted,1605  E 50TH ST,60615,1.0,False,KENWOOD,Multifamily Housing,59310.0,1950.0,1,,12,1477348.2,6179500.1,0.0,0.0,,129.1,179.1,139.4,189.9,539.2,9.1,41.80224043,-87.60332678,"(41.80224043, -87.60332678)",2021-101710,33,8,21192.0,147,1
2021,101713,Aon Center,Submitted,200 E Randolph St,60601,3.5,False,LOOP,Office,3457865.0,1972.0,1,,77,82280448.2,76821702.6,0.0,63680135.9,,69.8,115.6,69.7,115.7,19200.1,6.0,41.88529085,-87.62152084,"(41.88529085, -87.62152084)",2021-101713,36,38,14309.0,580,22
2021,101715,The Franklin (227 West Monroe; 222 West Adams),Submitted,227 W Monroe,60606,3.5,False,LOOP,Office,3135770.0,1989.0,1,,76,129982801.4,349864.4,0.0,0.0,,43.9,122.8,43.9,122.8,18583.6,6.3,41.88003331,-87.63472342,"(41.88003331, -87.63472342)",2021-101715,36,38,14914.0,92,48
2021,101716,311 S. Wacker,Submitted,311 S Wacker,60606,3.5,False,LOOP,Office,1566471.0,1990.0,1,,73,68091339.2,0.0,0.0,0.0,,47.5,133.0,49.2,137.8,9725.2,6.8,41.87745822,-87.63573828,"(41.87745822, -87.63573828)",2021-101716,36,38,14914.0,92,48
2021,101717,55 East Monroe Office,Submitted,55 E Monroe St,60603,2.5,False,LOOP,Office,2144478.0,1972.0,1,,59,88161951.5,0.0,0.0,33249275.3,,72.5,165.5,73.0,171.2,14344.1,8.6,41.88017573,-87.62564433,"(41.88017573, -87.62564433)",2021-101717,36,38,14311.0,367,22
2021,101718,70 W Madison,Submitted,70 W Madison St,60602,3.0,False,LOOP,Office,1636819.0,1981.0,1,,69,71670458.9,18180.0,0.0,0.0,,44.8,125.3,46.6,130.5,10237.4,6.4,41.88229695,-87.630198,"(41.88229695, -87.630198)",2021-101718,36,38,14310.0,92,22
2021,101720,131 S. Dearborn 3,Submitted,131 S Dearborn,60603,3.0,False,LOOP,Office,1778504.0,2002.0,1,,68,140809555.0,84598.3,0.0,0.0,,85.3,238.6,86.8,242.9,20115.8,12.2,41.87980869,-87.62854911,"(41.87980869, -87.62854911)",2021-101720,36,38,14311.0,92,22
2021,101722,500 West Monroe,Submitted,500 W Monroe,60661,4.0,False,NEAR WEST SIDE,Office,1559966.0,1992.0,1,,83,57806615.8,0.0,0.0,0.0,,50.1,140.3,52.1,145.9,8256.3,7.2,41.880609,-87.639778,"(41.880609, -87.639778)",2021-101722,36,29,14914.0,786,48
2021,101724,(IL392) - Tribune Tower,Submitted,435 N Michigan Ave,60611,4.0,False,NEAR NORTH SIDE,Multifamily Housing,895265.0,2000.0,1,,100,13590681.8,9629215.9,0.0,0.0,,25.9,53.8,25.3,51.9,2452.6,2.7,41.89029185,-87.62406414,"(41.89029185, -87.62406414)",2021-101724,36,37,21182.0,159,22
2021,101727,500 West Madison,Submitted,500 W Madison St,60661,2.5,False,NEAR WEST SIDE,Office,1855810.0,1986.0,1,,58,88550578.3,0.0,0.0,0.0,,47.7,133.6,49.1,137.6,12647.4,6.8,41.88239806,-87.64047796,"(41.88239806, -87.64047796)",2021-101727,36,29,4452.0,784,22
2021,101729,540 West Madison,Submitted,540 W Madison,60661,4.0,False,NEAR WEST SIDE,Financial Office,1419333.0,2004.0,1,,86,110938143.3,1020465.6,0.0,0.0,,91.6,255.0,93.2,259.5,15899.1,13.0,41.88256638,-87.6416484,"(41.88256638, -87.6416484)",2021-101729,36,29,4452.0,784,22
2020,101731,175 W Jackson,Submitted Data,175 W Jackson,60604,3.5,False,LOOP,Office,1863650.0,1928.0,1,,80,45549193.3,38006992.0,,29653057.5,,62.6,107.5,63.6,108.7,10690.3,5.9,41.87749352,-87.63319804,"(41.87749352, -87.63319804)",2020-101731,36,38,14912.0,92,48
2021,101733,Two North Riverside Plaza,Submitted,2 N Riverside Plz,60606,3.0,False,NEAR WEST SIDE,Office,778175.0,1929.0,1,,67,37782986.7,713673.1,0.0,0.0,,51.9,143.7,54.6,151.0,5434.3,7.3,41.88253679,-87.63918687,"(41.88253679, -87.63918687)",2021-101733,36,29,14914.0,784,22
2021,101735,71215A STATE STREET Macy's,Submitted,101 N State St E,60602,3.5,False,LOOP,Retail Store,1841736.0,1879.0,1,,77,53460376.1,49580374.7,0.0,0.0,,55.9,109.5,58.5,112.2,10269.0,5.6,41.88334304,-87.62785457,"(41.88334304, -87.62785457)",2021-101735,36,38,14310.0,580,22
2021,101736,71 South Wacker,Submitted,71 S Wacker Dr,60606,3.5,False,LOOP,Office,1797097.0,2005.0,1,,80,82186345.3,331271.4,0.0,0.0,,48.9,136.6,50.7,141.7,11756.0,7.0,41.88099639,-87.63603964,"(41.88099639, -87.63603964)",2021-101736,36,38,14914.0,92,48
2021,101737,100 North Riverside Plaza,Submitted,100 N Riverside Plz,60606,3.5,False,NEAR WEST SIDE,Office,1055404.0,1990.0,1,,80,49900500.0,64191.3,0.0,0.0,,57.2,160.0,59.6,166.5,7137.7,8.2,41.88384565,-87.63878625,"(41.88384565, -87.63878625)",2021-101737,36,29,14914.0,784,22
2020,101738,300 E Randolph,Submitted Data,300 E Randolph,60601,3.5,False,LOOP,Office,2286697.0,2010.0,1,,53,144238480.8,728377.1,,39936577.7,,83.1,198.2,82.7,197.8,24654.6,11.1,41.88484639,-87.61989893,"(41.88484639, -87.61989893)",2020-101738,36,38,14309.0,580,22
2021,101739,One South Dearborn,Submitted,1 S Dearborn,60603,4.0,False,LOOP,Office,1048792.0,2005.0,1,,84,38219074.4,0.0,0.0,0.0,,40.5,113.5,41.4,115.8,5458.7,5.8,41.88165139,-87.62884674,"(41.88165139, -87.62884674)",2021-101739,36,38,14311.0,92,22
2021,101742,Thompson Center,Submitted,100 W Randolph St,60601,2.0,False,LOOP,Office,1193163.0,1985.0,1,,42,75107161.8,41072904.5,0.0,0.0,,97.4,212.4,102.3,217.6,12908.9,10.8,41.88517287,-87.63173182,"(41.88517287, -87.63173182)",2021-101742,36,38,14309.0,92,22
2021,101744,One North Wacker,Submitted,1 N Wacker Dr,60606,4.0,False,LOOP,Office,1684690.0,2001.0,1,,82,67421188.2,0.0,0.0,31983539.0,,61.6,135.0,61.3,138.2,11315.1,7.0,41.88230154,-87.636058,"(41.88230154, -87.636058)",2021-101744,36,38,14914.0,92,22
2021,101745,161 North Clark,Submitted,161 N Clark,60601,3.5,False,LOOP,Office,1253060.0,1992.0,1,,71,68706556.9,0.0,0.0,0.0,,57.2,160.2,57.9,162.0,9813.1,8.2,41.88490511,-87.6305179,"(41.88490511, -87.6305179)",2021-101745,36,38,14309.0,92,22
2021,101748,One South Wacker,Submitted,1 S Wacker,60606,3.5,False,LOOP,Office,1429883.0,1982.0,1,,74,54577737.8,0.0,0.0,0.0,,40.6,113.8,40.6,113.8,7795.1,5.8,41.88155817,-87.63615089,"(41.88155817, -87.63615089)",2021-101748,36,38,14914.0,92,48
2020,101751,,Submitted Data,7500  S SOUTH SHORE DR,60649,1.0,False,SOUTH SHORE,Multifamily Housing,81000.0,1950.0,1,,8,1235355.5,13117820.4,,,,177.2,212.7,184.5,220.5,889.6,11.0,41.76259226,-87.57231648,"(41.76259226, -87.57231648)",2020-101751,33,39,22538.0,453,32
2021,101753,222 S Riverside Plaza,Submitted,222 S Riverside Plz,60606,4.0,False,NEAR WEST SIDE,Office,1237455.0,1971.0,1,,84,50590269.9,34122801.6,0.0,0.0,,68.5,143.4,71.8,146.9,9038.1,7.3,41.8787371,-87.63898537,"(41.8787371, -87.63898537)",2021-101753,36,29,14914.0,786,48
2021,101755,Harris Bank Building,Submitted,115 S LaSalle St,60603,2.5,False,LOOP,Office,1526102.0,1974.0,1,,53,64870752.4,85834798.1,0.0,0.0,,98.8,178.1,102.3,181.8,13824.4,9.1,41.88031326,-87.63191186,"(41.88031326, -87.63191186)",2021-101755,36,38,14311.0,92,22
2021,101756,Cook County Building,Submitted,118 N Clark St,60602,2.5,False,LOOP,Office,638592.0,1906.0,1,,51,31509257.0,33514399.6,0.0,0.0,,101.8,193.3,108.6,200.4,6280.5,9.8,41.88385328,-87.63167966,"(41.88385328, -87.63167966)",2021-101756,36,38,14310.0,92,22
2021,101757,IL0000FC-CHICAGO FEDERAL CTR,Submitted,219 S Dearborn,60604,2.0,False,LOOP,Mixed Use Property,3176860.0,1975.0,3,,,88752432.2,108131429.0,0.0,0.0,,62.0,114.0,65.5,116.8,18419.6,5.8,41.87881863,-87.62895341,"(41.87881863, -87.62895341)",2021-101757,36,38,14912.0,92,22
2021,101760,Leo Burnett Building,Submitted,35 W Wacker Dr,60601,3.5,False,LOOP,Office,1398335.0,1989.0,1,,74,68794245.3,0.0,0.0,0.0,,49.4,138.4,50.1,140.3,9825.6,7.1,41.88642141,-87.62903061,"(41.88642141, -87.62903061)",2021-101760,36,38,14309.0,92,22
2021,101762,RICHARD J. DALEY CENTER,Submitted,50 W Washington,60602,3.0,False,LOOP,Courthouse,1593714.0,1965.0,1,,68,50201882.0,63999339.4,0.0,0.0,,74.1,134.8,79.3,140.2,10569.5,6.9,41.88409726,-87.63019634,"(41.88409726, -87.63019634)",2021-101762,36,38,14310.0,92,22
2021,101765,77 West Wacker Drive,Submitted,77 W Wacker Dr,60601,3.0,False,LOOP,Office,1178377.0,1992.0,1,,65,53002519.8,0.0,0.0,0.0,,46.5,130.2,47.6,133.3,7570.2,6.6,41.88651883,-87.630542,"(41.88651883, -87.630542)",2021-101765,36,38,14309.0,92,22
2021,101766,181 West Madison,Submitted,181 W Madison St,60602,nan,True,LOOP,Office,1107510.0,1990.0,1,,,60228316.9,0.0,0.0,0.0,,55.7,155.8,56.9,159.4,8602.2,7.9,41.88158551,-87.63338486,"(41.88158551, -87.63338486)",2021-101766,36,38,14311.0,92,22
2021,101770,10 and 30 South Wacker,Submitted,10 S Wacker Dr,60606,3.0,False,LOOP,Office,3014304.0,1983.0,1,,68,144110835.6,1733446.5,0.0,0.0,,50.7,140.8,52.5,145.8,20680.7,7.2,41.8816073,-87.63751717,"(41.8816073, -87.63751717)",2021-101770,36,38,14914.0,92,48
2021,101776,Hyatt Regency Chicago,Submitted,151 E Wacker Dr,60601,4.0,False,LOOP,Hotel,2295495.0,1974.0,1,,89,56157050.3,105312913.7,0.0,0.0,,79.8,132.4,84.0,136.8,13614.4,6.7,41.88770297,-87.62267404,"(41.88770297, -87.62267404)",2021-101776,36,38,14309.0,580,22
2021,101784,Auditorium Building,Submitted,430 S Michigan Ave,60605,4.0,False,LOOP,College/University,598474.0,1889.0,1,,,13309942.5,11044394.0,0.0,0.0,,40.7,81.6,43.2,84.3,2487.6,4.2,41.87603287,-87.62519066,"(41.87603287, -87.62519066)",2021-101784,36,38,14913.0,367,48
2021,101787,111 N Canal,Submitted,111 N Canal St,60606,4.0,False,NEAR WEST SIDE,Office,979270.0,1918.0,1,,89,61674697.8,18801132.2,0.0,0.0,,82.2,196.5,84.0,197.2,9807.4,10.0,41.8838247,-87.6393572,"(41.8838247, -87.6393572)",2021-101787,36,29,14914.0,784,22
2021,101788,333 West Wacker,Submitted,333 W Wacker Dr,60606,3.5,False,LOOP,Office,1075664.0,1982.0,1,,80,45625946.4,0.0,0.0,0.0,,45.1,126.1,45.1,126.1,6518.4,6.4,41.88609655,-87.63591682,"(41.88609655, -87.63591682)",2021-101788,36,38,14914.0,92,22
2021,101789,200 West Madison (EPL),Submitted,200 W Madison,60606,3.0,False,LOOP,Office,1026496.0,1982.0,1,,69,44376233.2,0.0,0.0,0.0,,44.3,124.0,46.7,130.8,6338.1,6.3,41.88234782,-87.6343649,"(41.88234782, -87.6343649)",2021-101789,36,38,14914.0,92,22
2020,101790,The Jewelers Building,Submitted Data,35 E Wacker Dr,60601,4.0,False,LOOP,Office,632100.0,1927.0,1,,79,19837704.6,20635797.4,,,,65.3,124.5,69.1,128.2,4192.1,6.8,41.88653197,-87.62678611,"(41.88653197, -87.62678611)",2020-101790,36,38,14309.0,580,22
2021,101791,55 West Monroe,Submitted,55 W Monroe,60603,3.5,False,LOOP,Office,895765.0,1980.0,1,,76,34789195.6,0.0,0.0,0.0,,38.8,108.7,41.1,115.1,4968.8,5.5,41.88038865,-87.6298223,"(41.88038865, -87.6298223)",2021-101791,36,38,14311.0,92,22
2021,101793,Wrightwood,Submitted,625  W WRIGHTWOOD AVE,60614,4.0,False,LINCOLN PARK,Multifamily Housing,88000.0,1965.0,1,,89,1214865.8,2662820.7,0.0,0.0,,44.1,70.4,46.1,71.8,315.0,3.6,41.92201051,-87.65461957,"(41.92201051, -87.65461957)",2021-101793,34,68,21190.0,797,16
2020,101794,225 W Wacker,Submitted Data,225 W Wacker Dr,60606,4.0,False,LOOP,Office,810498.0,1989.0,1,,81,29114487.9,,,,,40.3,112.9,42.6,119.3,4543.9,6.3,41.88628574,-87.63508062,"(41.88628574, -87.63508062)",2020-101794,36,38,14914.0,92,22
2021,101795,541 N Fairbanks,Submitted,541 N Fairbanks,60611,4.0,False,NEAR NORTH SIDE,Office,717914.0,1969.0,1,,69,28553178.7,31470002.4,0.0,0.0,,84.2,158.5,89.0,163.6,5749.7,8.1,41.89221623,-87.61971658,"(41.89221623, -87.61971658)",2021-101795,36,37,21182.0,159,22
2021,101797,303 E. Wacker,Submitted,303 E Wacker,60601,4.0,False,LOOP,Office,1121259.0,1979.0,1,,86,60160486.4,31080.3,0.0,0.0,,59.3,166.0,61.3,171.5,8594.2,8.5,41.88729474,-87.62026142,"(41.88729474, -87.62026142)",2021-101797,36,38,14309.0,580,22
2020,101798,Headquarters Q12380,Submitted Data,225 W Randolph,60606,4.0,False,LOOP,Office,929932.0,2000.0,1,,100,4211830.5,1953200.4,,,,6.6,14.9,6.8,15.0,761.1,0.8,41.88411639,-87.63478478,"(41.88411639, -87.63478478)",2020-101798,36,38,14914.0,92,22
2021,101799,200 South Wacker Property LLC,Submitted,200 S Wacker Dr,60606,3.0,False,LOOP,Office,865070.0,1981.0,1,,62,44630154.2,0.0,0.0,0.0,,52.9,148.2,55.9,156.6,6374.4,7.6,41.87902474,-87.63734431,"(41.87902474, -87.63734431)",2021-101799,36,38,14914.0,92,48
2021,101801,Michigan Plaza,Submitted,205 N Michigan Ave,60601,3.5,False,LOOP,Office,2159198.0,1981.0,1,,74,100986260.6,45592.9,0.0,0.0,,49.1,137.3,51.0,142.7,14425.9,7.0,41.88603179,-87.62354823,"(41.88603179, -87.62354823)",2021-101801,36,38,14309.0,580,22
2021,101804,401 N Michigan Avenue,Submitted,401 N Michigan Ave,60611,3.0,False,NEAR NORTH SIDE,Office,941166.0,1965.0,1,,66,29477782.9,47468807.5,0.0,0.0,,87.6,150.6,88.5,151.6,6731.5,7.7,41.88961452,-87.62297649,"(41.88961452, -87.62297649)",2021-101804,36,37,21182.0,159,22
2021,101807,Fine Arts Building,Submitted,408 410 S Michigan Ave,60605,3.0,False,LOOP,Office,160558.0,1884.0,1,,65,2607492.7,12447766.8,0.0,0.0,,93.8,126.9,103.1,136.6,1033.6,6.4,41.87645683,-87.62485929,"(41.87645683, -87.62485929)",2021-101807,36,38,14913.0,367,48
2021,101812,One North Dearborn,Submitted,1 N Dearborn St,60602,4.0,False,LOOP,Office,1088373.0,1904.0,1,,83,35132340.4,5513.6,0.0,13902396.1,,45.1,102.0,45.2,105.0,5750.8,5.3,41.88234218,-87.62866439,"(41.88234218, -87.62866439)",2021-101812,36,38,14310.0,92,22
2021,101813,150 North Michigan Avenue,Submitted,150 N Michigan Ave,60601,3.0,False,LOOP,Office,708981.0,1984.0,1,,67,33166441.5,85782.6,0.0,0.0,,46.9,131.1,49.3,137.9,4741.6,6.7,41.88483521,-87.62496769,"(41.88483521, -87.62496769)",2021-101813,36,38,14309.0,580,22
2021,101815,"Magnolia Gardens, LLC",Submitted,4845 4859 N MAGNOLIA AVE,60640,3.5,False,UPTOWN,Multifamily Housing,50986.0,1916.0,1,,79,414387.4,3105291.6,0.0,0.0,,69.0,86.7,76.1,94.1,224.1,4.4,41.97223008,-87.6645957,"(41.97223008, -87.6645957)",2021-101815,18,31,22616.0,633,37
2018,101816,5041 - North Bridge Block 119 and 120,Submitted,43 E Ohio St,60611,3.0,False,NEAR NORTH SIDE,Enclosed Mall,450811.0,1980.0,1,23561.0,,12363682.3,53292358.9,,,,145.6,200.9,142.7,197.8,4887.5,10.8,41.89210858,-87.6262422,"(41.89210858, -87.6262422)",2018-101816,36,37,21182.0,626,22
2019,101827,Burnham Center,Submitted,111 W Washington,60602,3.0,False,LOOP,Office,597773.0,1914.0,1,,70,23271586.9,29092641.9,,,,87.6,160.1,85.1,,5416.8,9.1,41.88322343,-87.63144072,"(41.88322343, -87.63144072)",2019-101827,36,38,14310.0,92,22
2018,101828,Indiana Terrace Apartments,Submitted,6000 S. Indiana Ave,60637,4.0,False,WASHINGTON PARK,Multifamily Housing,66649.0,1973.0,1,4242.0,94,1118238.6,3374924.5,,,,67.4,100.1,68.1,100.9,365.3,5.5,41.78046327,-87.6053081,"(41.78046327, -87.6053081)",2018-101828,4,9,22260.0,470,53
2018,101830,251010 - Quaker Tower,Submitted,555 West Monroe Street,60661,4.0,False,NEAR WEST SIDE,Office,454346.0,2002.0,1,6694.0,55,38324266.4,646720.0,,,,85.8,237.7,83.3,230.7,6410.1,14.1,41.88030693,-87.64186748,"(41.88030693, -87.64186748)",2018-101830,36,29,4452.0,786,48
2021,101834,One North Franklin,Submitted,1 N Franklin,60606,3.0,False,LOOP,Office,726112.0,1991.0,1,,66,33676617.4,0.0,0.0,0.0,,47.0,131.7,48.8,136.6,4809.9,6.7,41.88230828,-87.6349623,"(41.88230828, -87.6349623)",2021-101834,36,38,14914.0,92,22
2021,101835,Accesso 230 W Monroe,Submitted,230 W Monroe,60606,4.0,False,LOOP,Office,677385.0,1971.0,1,,69,23869082.7,28959598.6,0.0,0.0,,78.0,143.6,81.0,146.4,4947.3,7.3,41.88100752,-87.63490659,"(41.88100752, -87.63490659)",2021-101835,36,38,14914.0,92,48
2021,101838,191 North Wacker,Submitted,191 N Wacker Dr,60606,3.5,False,LOOP,Office,904965.0,2003.0,1,,76,36041433.7,0.0,0.0,0.0,,46.3,129.7,47.9,134.1,5147.7,6.6,41.88538256,-87.63643849,"(41.88538256, -87.63643849)",2021-101838,36,38,14914.0,92,22
2021,101839,120 South Riverside Plaza,Submitted,120 S Riverside Plz,60606,4.0,False,NEAR WEST SIDE,Office,787045.0,1966.0,1,,94,14422947.1,18128401.1,0.0,0.0,,41.4,75.5,44.5,78.8,3022.9,3.8,41.87996528,-87.63907767,"(41.87996528, -87.63907767)",2021-101839,36,29,14914.0,786,48
2021,101840,8602,Submitted,710 N Lakeshore Dr,60611,1.0,False,NEAR NORTH SIDE,College/University,236060.0,1939.0,1,,,19730681.6,25127129.5,0.0,0.0,,190.0,345.8,201.4,357.7,4152.7,17.6,41.89534174,-87.61664801,"(41.89534174, -87.61664801)",2021-101840,36,37,21182.0,158,22
2021,101841,122 Property LLC,Submitted,122 S Michigan Ave,60603,4.0,False,LOOP,Office,512369.0,1910.0,1,,63,17280541.4,30692995.9,0.0,5127384.1,,103.6,166.4,110.7,175.0,4368.6,8.5,41.87991058,-87.62493152,"(41.87991058, -87.62493152)",2021-101841,36,38,14311.0,367,22
2021,101846,200 West Adams St.,Submitted,200 W Adams St,60606,4.0,False,LOOP,Office,789024.0,1985.0,1,,85,24457393.4,0.0,0.0,0.0,,31.0,86.8,31.7,88.7,3493.2,4.4,41.87975177,-87.63414051,"(41.87975177, -87.63414051)",2021-101846,36,38,14914.0,92,48
2021,101848,200 West Monroe,Submitted,200 W Monroe,60606,4.0,False,LOOP,Office,703370.0,1973.0,1,,81,31941335.6,390604.2,0.0,0.0,,46.0,127.7,48.3,134.3,4582.8,6.5,41.8810266,-87.63432282,"(41.8810266, -87.63432282)",2021-101848,36,38,14914.0,92,48
2021,101850,One East Wacker,Submitted,1 E Wacker Dr,60601,4.0,False,LOOP,Office,728275.0,1962.0,1,,88,11551998.2,28956795.1,0.0,0.0,,58.9,91.2,63.6,95.4,3188.0,4.6,41.88653035,-87.62754249,"(41.88653035, -87.62754249)",2021-101850,36,38,14309.0,580,22
2018,101851,150-160 E. Huron,Submitted,150-160 E. Huron,60611,1.0,False,NEAR NORTH SIDE,Hotel,359801.0,1972.0,1,22186.0,17,23590800.0,26704437.3,,,,139.8,261.5,139.6,259.7,5343.1,14.9,41.89521657,-87.62317404,"(41.89521657, -87.62317404)",2018-101851,36,37,21182.0,158,22
2021,101852,29SA6-CHIGS-Sheraton Grand Chicago,Submitted,301 E N Water St,60611,4.0,False,NEAR NORTH SIDE,Hotel,1273000.0,1990.0,1,,81,57841588.8,18131200.5,0.0,0.0,,65.6,156.3,65.6,156.3,9224.3,8.0,41.88916695,-87.61943672,"(41.88916695, -87.61943672)",2021-101852,36,37,21182.0,159,22
2021,101854,10 South Riverside Plaza,Submitted,10 S Riverside Plz,60606,4.0,False,NEAR WEST SIDE,Office,787045.0,1964.0,1,,83,27620726.9,16140899.4,0.0,0.0,,55.6,119.8,58.2,122.6,4802.3,6.1,41.88124095,-87.63911942,"(41.88124095, -87.63911942)",2021-101854,36,29,14914.0,786,48
2021,101856,111 West Jackson,Submitted,111 W Jackson Blvd,60604,3.5,False,LOOP,Office,692429.0,1962.0,1,,74,18549501.8,20521969.6,0.0,9770892.2,,72.7,122.6,73.1,123.5,4254.3,6.3,41.87784862,-87.63130907,"(41.87784862, -87.63130907)",2021-101856,36,38,14912.0,92,48
2021,101862,101 North Wacker,Submitted,101 N Wacker Dr,60606,3.5,False,LOOP,Office,663093.0,1980.0,1,,77,37276748.3,824713.2,0.0,0.0,,57.5,158.7,59.0,162.9,5367.9,8.1,41.88356984,-87.6364138,"(41.88356984, -87.6364138)",2021-101862,36,38,14914.0,92,22
2021,101865,100/150 S. Wacker,Submitted,150 S Wacker Dr,60606,3.5,False,LOOP,Office,1281114.0,1971.0,1,,78,42173855.4,38348556.4,0.0,0.0,,62.9,123.6,65.9,126.8,8060.4,6.3,41.87965675,-87.63746431,"(41.87965675, -87.63746431)",2021-101865,36,38,14914.0,92,48
2021,101867,125 South Wacker,Submitted,125 S Wacker Dr,60606,3.0,False,LOOP,Office,641962.0,1974.0,1,,69,32088938.8,0.0,0.0,0.0,,50.0,140.0,52.3,146.5,4583.2,7.1,41.8797333,-87.63641137,"(41.8797333, -87.63641137)",2021-101867,36,38,14914.0,92,48
2021,101868,AG 300 South Wacker Owner LLC,Submitted,300 S Wacker Dr,60606,3.5,False,LOOP,Office,618563.0,1971.0,1,,73,21817215.1,18026606.7,0.0,0.0,,65.4,131.3,69.1,134.7,4073.6,6.7,41.87767066,-87.6371323,"(41.87767066, -87.6371323)",2021-101868,36,38,14914.0,92,48
2021,101869,Autograph Hotel Chicago,Submitted,333 N Dearborn,60654,4.0,False,NEAR NORTH SIDE,Hotel,375000.0,2013.0,1,,100,6518032.3,1264900.0,0.0,0.0,,20.8,52.2,20.8,52.2,998.1,2.7,41.88833261,-87.62950362,"(41.88833261, -87.62950362)",2021-101869,36,37,4446.0,669,22
2021,101871,123 N Wacker,Submitted,123 N Wacker,60606,3.0,False,LOOP,Office,564484.0,1986.0,1,,67,26789058.7,0.0,0.0,0.0,,48.2,134.9,49.4,138.3,3826.2,6.9,41.88411984,-87.63649725,"(41.88411984, -87.63649725)",2021-101871,36,38,14914.0,92,22
2020,101872,100 N LaSalle,Submitted Data,100 N LaSalle St,60602,4.0,False,LOOP,Office,160475.0,1927.0,1,,61,5484206.0,7978390.1,,,,83.9,147.9,88.1,152.3,1279.7,8.0,41.88343043,-87.63249784,"(41.88343043, -87.63249784)",2020-101872,36,38,14310.0,92,22
2021,101874,444 N. Michigan,Submitted,444 N Michigan Ave,60611,2.5,False,NEAR NORTH SIDE,Office,517115.0,1976.0,1,,51,35150935.8,38586.4,0.0,0.0,,68.0,190.4,72.2,202.1,5022.5,9.7,41.89069402,-87.62477656,"(41.89069402, -87.62477656)",2021-101874,36,37,21182.0,626,22
2021,101876,55 E. Jackson Acquisitions LLC,Submitted,55 E Jackson Blvd,60604,3.0,False,LOOP,Office,434169.0,1961.0,1,,50,20011356.1,28058124.7,0.0,0.0,,110.7,196.9,118.6,205.2,4348.5,10.0,41.8780063,-87.62558458,"(41.8780063, -87.62558458)",2021-101876,36,38,14912.0,367,48
2021,101878,200 West Jackson Boulevard Building,Submitted,200 W Jackson Blvd,60606,3.0,False,LOOP,Office,548786.1,1971.0,1,,70,15276005.1,25504550.9,0.0,9264263.9,,91.2,142.1,93.8,145.8,4024.7,7.3,41.87843672,-87.63410024,"(41.87843672, -87.63410024)",2021-101878,36,38,14914.0,92,48
2021,101881,25 E Washington,Submitted,25 E Washington St,60602,4.0,False,LOOP,Office,488324.0,1914.0,1,,89,15129425.6,0.0,4959147.7,0.0,,41.1,99.0,42.0,99.4,2490.2,5.1,41.8829176,-87.62666864,"(41.8829176, -87.62666864)",2021-101881,36,38,14310.0,580,22
2021,101883,Omni Hotel,Submitted,676 N Michigan Ave,60611,1.0,False,NEAR NORTH SIDE,Hotel,440281.0,1990.0,1,,2,65729450.4,379100.0,0.0,0.0,,150.2,418.9,153.1,427.2,9408.0,21.4,41.89472393,-87.62492502,"(41.89472393, -87.62492502)",2021-101883,36,37,21182.0,626,22
2021,101887,550 West Adams,Submitted,550 W Adams,60661,4.0,False,NEAR WEST SIDE,Office,525575.0,2006.0,1,,84,19037991.0,256383.0,0.0,0.0,,37.1,103.2,37.8,104.9,2732.7,5.3,41.87954979,-87.64173979,"(41.87954979, -87.64173979)",2021-101887,36,29,4452.0,786,48
2021,101889,333 North Michigan,Submitted,333 N Michigan Ave,60601,3.5,False,LOOP,Office,354146.0,1928.0,1,,73,8307660.4,14822999.6,0.0,0.0,,65.3,109.6,68.3,111.9,1973.9,5.6,41.88764029,-87.62452335,"(41.88764029, -87.62452335)",2021-101889,36,38,14309.0,580,22
2021,101890,8890,Submitted,345 E Superior St,60611,2.0,False,NEAR NORTH SIDE,College/University,370800.0,1974.0,1,,,19134571.1,59221295.1,0.0,0.0,,211.3,312.2,221.4,322.8,5878.5,15.9,41.89544928,-87.61831774,"(41.89544928, -87.61831774)",2021-101890,36,37,21182.0,158,22
2021,101891,224 South Michigan Avenue,Submitted,224 S Michigan Ave,60604,4.0,False,LOOP,Office,412504.0,1904.0,1,,82,13458651.1,12369920.6,0.0,0.0,,62.6,122.8,66.1,125.8,2579.3,6.3,41.87862405,-87.62489066,"(41.87862405, -87.62489066)",2021-101891,36,38,14912.0,367,22
2021,101899,6830 N SHERIDAN RD,Submitted,6830  N SHERIDAN RD,60626,3.5,False,ROGERS PARK,Multifamily Housing,67064.0,1967.0,1,,76,1187788.9,4522607.9,0.0,0.0,,88.9,125.6,93.9,129.5,409.9,6.4,42.01036185,-87.66829765,"(42.01036185, -87.66829765)",2021-101899,5,10,21853.0,358,3
2021,101900,"WASHINGTON FRANKLIN, LLC",Submitted,309 W Washngton St,60606,3.5,False,LOOP,Office,105313.0,1922.0,1,,71,3725658.3,4443985.4,0.0,0.0,,77.6,143.4,80.8,144.3,768.2,7.3,41.88299541,-87.63565914,"(41.88299541, -87.63565914)",2021-101900,36,38,14914.0,92,22
2021,101901,1123 The Allegro Royal Sonesta Hotel 171 W Randolph,Submitted,151 171 W Randolph St,60601,1.0,False,LOOP,Hotel,383168.0,1926.0,1,,30,8764216.7,54905797.0,0.0,18621120.5,,214.8,258.7,226.6,271.2,5149.4,13.4,41.8841082,-87.63304764,"(41.8841082, -87.63304764)",2021-101901,36,38,14310.0,92,22
2021,101907,225 West Washington,Submitted,225 W Washington St,60606,2.5,False,LOOP,Office,528730.0,1987.0,1,,54,25848373.7,0.0,0.0,0.0,,48.9,136.9,51.0,142.9,3691.8,7.0,41.88285621,-87.63499083,"(41.88285621, -87.63499083)",2021-101907,36,38,14914.0,92,22
2021,101910,154-60 N LASALLE,Submitted,160 N LaSalle St,60601,3.5,False,LOOP,Office,464498.0,1920.0,1,,77,13911491.7,12561714.2,0.0,0.0,,57.0,112.3,59.2,112.7,2654.1,5.7,41.88474397,-87.63249596,"(41.88474397, -87.63249596)",2021-101910,36,38,14309.0,92,22
2021,101912,550 West Washington,Submitted,550 W Washington,60661,4.0,False,NEAR WEST SIDE,Office,400491.8,2000.0,1,,87,15974868.0,0.0,0.0,0.0,,40.7,114.0,41.4,116.0,2281.6,5.8,41.88353377,-87.6416697,"(41.88353377, -87.6416697)",2021-101912,36,29,4452.0,784,22
2021,101913,Chicago Transit Authority - 567 W Lake Street,Submitted,567 W Lake St,60661,3.0,False,NEAR WEST SIDE,Office,434052.0,2004.0,1,,69,17891613.6,8846283.3,0.0,0.0,,61.6,136.8,63.1,137.5,3025.3,7.0,41.88528144,-87.64234829,"(41.88528144, -87.64234829)",2021-101913,36,29,4452.0,784,22
2021,101918,Randolph Wells,Submitted,205 W Randolph St,60606,3.0,False,LOOP,Office,200116.0,1914.0,1,,64,8912198.6,494533.0,0.0,0.0,,47.0,127.3,49.1,132.7,1299.2,6.5,41.8841105,-87.63418465,"(41.8841105, -87.63418465)",2021-101918,36,38,14914.0,92,22
2018,101919,Marquette Building,Submitted,140 South Dearborn Street,60603,2.5,False,LOOP,Office,372265.0,1895.0,1,6615.0,49,24386911.7,2032300.0,,6201072.1,,87.6,204.3,86.3,201.1,4491.9,12.1,41.87977522,-87.62973114,"(41.87977522, -87.62973114)",2018-101919,36,38,14311.0,92,22
2021,101920,The Wrigley Building,Submitted,410 N MICHIGAN AVE,60611,3.5,False,NEAR NORTH SIDE,Office,620360.0,1921.0,1,,75,21047986.5,19405102.0,0.0,0.0,,65.2,127.8,68.9,130.4,4036.9,6.5,41.89006564,-87.62518362,"(41.89006564, -87.62518362)",2021-101920,36,37,21182.0,626,22
2021,101923,311 West Monroe,Submitted,311 W Monroe,60606,nan,True,LOOP,Office,431036.0,1969.0,1,,,13445624.0,2797154.9,0.0,0.0,,38.2,95.5,39.2,96.5,2069.0,4.9,41.88030523,-87.63570062,"(41.88030523, -87.63570062)",2021-101923,36,38,14914.0,92,48
2021,101924,Onni Van Buren Chicago LLC,Submitted,550 W Van Buren,60607,4.0,False,NEAR WEST SIDE,Office,338934.0,1999.0,1,,77,16931036.6,0.0,0.0,0.0,,50.9,142.5,52.1,145.9,2418.2,7.3,41.876786,-87.641142,"(41.876786, -87.641142)",2021-101924,36,29,4452.0,786,48
2021,101929,200 S. Michigan Ave,Submitted,200 S Michigan Ave,60604,4.0,False,LOOP,Office,287730.4,1955.0,1,,84,6648213.8,13513519.7,0.0,0.0,,70.1,114.0,76.0,120.3,1667.3,5.8,41.87931324,-87.62491915,"(41.87931324, -87.62491915)",2021-101929,36,38,14912.0,367,22
2021,101934,"321 N. Clark Property, LLC",Submitted,321 N Clark St,60654,3.5,False,NEAR NORTH SIDE,Office,996358.3,1987.0,1,,76,43457040.4,0.0,0.0,0.0,,44.3,124.0,45.0,126.1,6206.8,6.3,41.88827025,-87.6306007,"(41.88827025, -87.6306007)",2021-101934,36,37,4446.0,670,22
2021,101935,500 N Michigan,Submitted,500 N Michigan Ave,60611,nan,True,NEAR NORTH SIDE,Office,418435.0,1968.0,1,,,29340511.3,0.0,0.0,0.0,,72.6,203.3,76.0,212.7,4190.6,10.4,41.89117131,-87.62469712,"(41.89117131, -87.62469712)",2021-101935,36,37,21182.0,626,22
2021,101940,Mallers Building LLC,Submitted,5 S Wabash Ave,60603,nan,True,LOOP,Enclosed Mall,315000.0,1912.0,1,,,13389824.2,4770566.7,0.0,0.0,,57.7,134.9,,,2165.8,6.9,41.88185833,-87.62566994,"(41.88185833, -87.62566994)",2021-101940,36,38,14311.0,367,22
2017,101942,Nordstrom #220 Michigan Avenue,Submitted,55 E Grand Ave,60611,nan,,NEAR NORTH SIDE,Retail Store,349978.0,2000.0,1,,64,18592578.0,3714941.0,,,,63.7,178.0,65.4,183.3,3635.0,10.4,41.89129703,-87.6260419,"(41.89129703, -87.6260419)",2017-101942,36,37,21182.0,626,22
2021,101943,303 West Madison,Submitted,303 W Madison St,60606,4.0,False,LOOP,Office,353439.0,1987.0,1,,77,17387934.1,0.0,0.0,0.0,,50.3,140.9,52.2,146.3,2483.5,7.2,41.88191292,-87.63561095,"(41.88191292, -87.63561095)",2021-101943,36,38,14914.0,92,48
2021,101950,332 Property LLC,Submitted,332 S Michigan Ave,60604,4.0,False,LOOP,Office,529401.0,1910.0,1,,70,15577503.1,26939065.6,0.0,0.0,,80.3,135.8,85.0,139.5,3655.7,6.9,41.87724917,-87.6247034,"(41.87724917, -87.6247034)",2021-101950,36,38,14912.0,367,48
2021,101954,The Garland Building Office Condominium,Submitted,111 N Wabash Ave,60602,1.5,False,LOOP,Office,259000.0,1914.0,1,,33,14851924.2,17711778.3,0.0,0.0,,125.7,232.4,133.6,240.6,3062.0,11.8,41.88357029,-87.62621336,"(41.88357029, -87.62621336)",2021-101954,36,38,14310.0,580,22
2021,101958,17 N. State LLC,Submitted,17 N State St,60602,3.5,False,LOOP,Office,409072.0,1914.0,1,,79,13472851.8,11195097.4,0.0,0.0,,60.3,121.0,64.4,125.2,2518.9,6.2,41.8825726,-87.6277938,"(41.8825726, -87.6277938)",2021-101958,36,38,14310.0,580,22
2021,101960,Chicago Cultural Center,Submitted,78 E Washington St,60602,2.0,False,LOOP,Other - Entertainment/Public Assembly,240000.0,1897.0,1,,,9976043.1,9595851.7,0.0,0.0,,81.5,158.4,85.5,161.2,1934.5,8.1,41.88386579,-87.62497275,"(41.88386579, -87.62497275)",2021-101960,36,38,14309.0,580,22
2021,101961,Inland Steel Building,Submitted,30 W Monroe,60603,2.5,False,LOOP,Office,311003.0,1958.0,1,,60,8639419.4,17893361.1,0.0,0.0,,88.2,142.8,95.1,150.1,2184.3,7.3,41.88108964,-87.62858918,"(41.88108964, -87.62858918)",2021-101961,36,38,14311.0,92,22
2021,101968,Michigan 30 LLC,Submitted,30 N Michigan Ave,60602,2.0,False,LOOP,Office,222125.0,1914.0,1,,45,12378353.9,9741972.6,0.0,0.0,,99.6,202.1,105.8,208.6,2285.4,10.3,41.88298879,-87.62497233,"(41.88298879, -87.62497233)",2021-101968,36,38,14310.0,580,22
2020,101969,Chicago Temple Building,Submitted Data,77 W Washington,60602,4.0,False,LOOP,Office,238531.0,1924.0,1,,62,7873748.3,10663400.1,,,,77.7,139.4,81.0,142.8,1795.2,7.5,41.88285519,-87.6306155,"(41.88285519, -87.6306155)",2020-101969,36,38,14310.0,92,22
2021,101971,Corboy Law Center-ID# 101971,Submitted,25 E Pearson St,60611,2.0,False,NEAR NORTH SIDE,College/University,306560.0,2004.0,1,,,18548566.9,8700145.1,0.0,0.0,,88.9,199.2,91.3,199.1,3111.3,10.1,41.897139,-87.62708914,"(41.897139, -87.62708914)",2021-101971,36,37,21182.0,104,22
2021,101972,150 North Wacker Drive,Submitted,150 N Wacker Dr,60606,3.0,False,LOOP,Office,308836.0,1970.0,1,,65,8665422.3,17884966.1,0.0,0.0,,100.1,162.4,108.3,170.9,2187.6,8.3,41.88476971,-87.63734502,"(41.88476971, -87.63734502)",2021-101972,36,38,14914.0,92,22
2021,101975,Daley Center,Submitted,14 E Jackson Blvd,60604,nan,True,LOOP,College/University,371257.0,1930.0,1,,,7217536.7,15557163.3,0.0,6228360.1,,78.1,113.7,81.6,117.6,2185.4,5.9,41.87849557,-87.62724664,"(41.87849557, -87.62724664)",2021-101975,36,38,14912.0,367,22
2020,101980,Harold Washington College,Submitted Data,30 E Lake St,60601,3.0,False,LOOP,College/University,345300.0,1983.0,1,,,15201735.0,1089499.9,,,,47.2,126.6,48.2,127.6,2430.4,7.0,41.88606565,-87.62685764,"(41.88606565, -87.62685764)",2020-101980,36,38,14309.0,580,22
2021,101981,Woodlawn Terrace,Submitted,4724 4730 S WOODLAWN AVE,60615,3.0,False,KENWOOD,Multifamily Housing,58167.0,1925.0,1,,65,728871.4,5207499.8,0.0,0.0,,102.1,129.1,109.8,136.6,380.7,6.5,41.80224043,-87.60332678,"(41.80224043, -87.60332678)",2021-101981,33,8,21192.0,147,1
2021,101987,20 South Clark,Submitted,20 S Clark St,60603,2.5,False,LOOP,Office,464592.0,1970.0,1,,58,25636191.7,0.0,0.0,0.0,,55.2,154.5,57.5,161.1,3661.5,7.9,41.88129971,-87.6311826,"(41.88129971, -87.6311826)",2021-101987,36,38,14311.0,92,22
2021,101988,205 W. Wacker,Submitted,205 W Wacker Dr,60606,3.0,False,LOOP,Office,324762.0,1929.0,1,,70,7928989.8,11520450.0,0.0,0.0,,62.8,110.8,67.5,115.7,1744.4,5.6,41.88638306,-87.63427616,"(41.88638306, -87.63427616)",2021-101988,36,38,14914.0,92,22
2021,101989,330 WELLS OWNER LLC,Submitted,330 S Wells St,60606,1.0,False,LOOP,Multifamily Housing,97930.0,2019.0,1,,26,5436513.6,3951000.2,0.0,0.0,,95.9,197.8,99.6,202.6,986.3,10.1,41.87705505,-87.6340282,"(41.87705505, -87.6340282)",2021-101989,36,38,14914.0,92,48
2021,101998,TransUnion LLC,Submitted,555 W Adams St,60661,4.0,False,NEAR WEST SIDE,Office,312000.0,1990.0,1,,100,8915402.5,0.0,0.0,0.0,,28.6,80.0,28.6,80.0,1273.4,4.1,41.87897953,-87.64154809,"(41.87897953, -87.64154809)",2021-101998,36,29,4452.0,786,48
2021,101999,1415 Lunt Condominium Association,Submitted,1415  W LUNT AVE,60626,1.0,False,ROGERS PARK,Multifamily Housing,52000.0,1972.0,1,,17,813362.8,5471042.2,0.0,0.0,,149.6,191.0,162.7,203.2,406.8,9.7,42.01036185,-87.66829765,"(42.01036185, -87.66829765)",2021-101999,5,10,21853.0,358,3
2021,102029,Drexel Grand,Submitted,5220  S DREXEL AVE,60615,2.5,False,HYDE PARK,Multifamily Housing,53092.0,1926.0,1,,54,1910225.3,931951.3,0.0,0.0,,53.5,119.2,56.9,127.3,322.3,6.1,41.80224043,-87.60332678,"(41.80224043, -87.60332678)",2021-102029,33,8,21192.0,147,1
2021,102032,450 Briar Place Condominium Association,Submitted,450  W BRIAR PL,60657,4.0,False,LAKE VIEW,Multifamily Housing,161000.0,1972.0,1,,81,4574737.9,1889071.2,0.0,0.0,,40.1,91.9,41.2,94.3,753.7,4.7,41.9398511,-87.65844752,"(41.9398511, -87.65844752)",2021-102032,25,57,4449.0,710,38
2021,102079,East Bank Club,Submitted,500 N Kingsbury St,60654,2.0,False,NEAR NORTH SIDE,Fitness Center/Health Club/Gym,384409.0,1980.0,1,,,31057013.5,27660598.4,0.0,0.0,,193.9,383.1,199.2,388.6,5905.0,19.5,41.89011705,-87.63932051,"(41.89011705, -87.63932051)",2021-102079,36,37,4446.0,652,22
2021,102083,Pratt Blvd Place Condo Assoc,Submitted,1645 1663 W PRATT BLVD,60626,3.0,False,ROGERS PARK,Multifamily Housing,68000.0,1930.0,1,,61,858118.0,4267999.8,0.0,0.0,,75.4,101.2,82.0,107.2,349.3,5.1,42.01036185,-87.66829765,"(42.01036185, -87.66829765)",2021-102083,5,10,21853.0,358,3
2021,102091,Superior West Private Residences,Submitted,101 W SUPERIOR ST,60654,4.0,False,NEAR NORTH SIDE,Multifamily Housing,111004.0,2001.0,1,,90,2103597.3,3106420.2,0.0,0.0,,46.9,82.4,49.4,83.8,465.4,4.2,41.89158015,-87.63783734,"(41.89158015, -87.63783734)",2021-102091,36,37,4446.0,652,22
2021,102125,Lavin Family Pavilion (Outpatient Care Pavilion),Submitted,259 E Erie St,60611,3.5,False,NEAR NORTH SIDE,Medical Office,975524.0,2014.0,1,,71,49873135.8,39590094.2,0.0,0.0,,129.3,261.9,130.8,262.0,9226.0,13.3,41.89404425,-87.62041608,"(41.89404425, -87.62041608)",2021-102125,36,37,21182.0,158,22
2021,102157,Prudential Plaza,Submitted,130 E Randolph St,60601,3.5,False,LOOP,Office,3021067.0,1972.0,1,,71,115027288.8,42190410.7,0.0,0.0,,57.1,133.2,59.1,135.2,18669.9,6.8,41.88494749,-87.62313016,"(41.88494749, -87.62313016)",2021-102157,36,38,14309.0,580,22
2018,102160,Block 37,Submitted,108 N. State Street,60602,nan,True,LOOP,Multifamily Housing,1019380.0,2009.0,1,,,62098127.0,36956568.2,,,,97.2,208.6,95.5,204.0,12293.9,12.1,41.88349,-87.62793,"(41.88349, -87.62793)",2018-102160,36,38,14310.0,92,22
2021,102232,2800 Lake Shore Drive Condo Association (102232),Submitted,2800 N Lake Shore Dr,60657,4.0,False,LAKE VIEW,Multifamily Housing,852820.0,1969.0,1,,81,9145886.5,48935882.8,0.0,0.0,,76.6,101.6,83.6,107.6,3905.5,5.2,41.93329168,-87.63716558,"(41.93329168, -87.63716558)",2021-102232,25,57,4449.0,103,38
2021,102238,Park West Condominium,Submitted,444 W FULLERTON PKWY,60614,1.0,False,LINCOLN PARK,Multifamily Housing,227669.0,1971.0,1,,6,6369569.4,20484191.8,0.0,0.0,,139.6,204.6,148.2,211.5,1997.8,10.4,41.92554767,-87.64131151,"(41.92554767, -87.64131151)",2021-102238,34,68,21190.0,745,51
2021,102239,"Lake Park Crescent Associates 1, LP",Submitted,1061  E 41ST PL,60653,3.5,False,OAKLAND,Multifamily Housing,137870.0,2004.0,1,,54,1834216.5,8164000.1,0.0,0.0,,93.4,128.1,100.0,134.2,695.6,6.5,41.82021138,-87.61246867,"(41.82021138, -87.61246867)",2021-102239,10,4,4301.0,583,1
2021,102270,2700-2714 N Spaulding Ave,Submitted,2700 2714 N SPAULDING AVE,60647,1.5,False,LOGAN SQUARE,Multifamily Housing,50000.0,1920.0,1,,37,1501576.8,4109745.3,0.0,0.0,,112.2,170.4,118.8,175.3,432.8,8.7,41.92075046,-87.70152825,"(41.92075046, -87.70152825)",2021-102270,41,23,22535.0,322,15
2021,102283,Ascension St Joseph Hospital - Chicago,Submitted,2900 N Lake Shore Dr,60657,4.0,False,LAKE VIEW,Hospital (General Medical & Surgical),966916.0,1960.0,2,,85,47724053.4,86512220.1,0.0,0.0,,196.9,329.2,200.5,329.2,11411.3,16.7,41.93498449,-87.63728308,"(41.93498449, -87.63728308)",2021-102283,25,57,4449.0,103,38
2021,102284,Commonwealth Plaza Condominium Association,Submitted,330 W Diversey Pkwy,60657,3.5,False,LAKE VIEW,Multifamily Housing,586721.0,1957.0,2,,56,7626215.8,42903698.5,0.0,0.0,,100.5,132.1,99.4,129.0,3368.0,6.7,41.932938,-87.638753,"(41.932938, -87.638753)",2021-102284,25,57,21190.0,153,38
2021,102285,Advocate Illinois Masonic Medical Center,Submitted,836 W Wellington Ave,60657,4.0,False,LAKE VIEW,Hospital (General Medical & Surgical),1836457.0,1908.0,15,,99,67889792.3,121905914.8,0.0,0.0,,144.8,242.7,149.8,246.0,16171.5,12.3,41.93678761,-87.65090588,"(41.93678761, -87.65090588)",2021-102285,25,57,4449.0,681,38
2021,102286,Illinois Masonic POB,Submitted,3000 N HALSTED ST,60657,4.0,False,LAKE VIEW,Medical Office,142955.0,1993.0,1,,97,5678240.2,0.0,3048096.4,0.0,,61.0,136.9,62.3,136.8,1013.4,7.1,41.9367335,-87.64981294,"(41.9367335, -87.64981294)",2021-102286,25,57,4449.0,681,38
2021,102309,Carl Schurz High School,Submitted,3601 N Milwaukee Ave,60641,2.0,False,IRVING PARK,K-12 School,455800.0,1910.0,1,,41,11386123.8,30361990.3,0.0,0.0,,91.6,139.9,101.8,148.5,3238.9,7.1,41.94750755,-87.735506,"(41.94750755, -87.735506)",2021-102309,50,16,22618.0,327,25
2017,102323,"Franklin Blvd Partners, LLC",Submitted,3515 W Franklin Blvd,60624,nan,,HUMBOLDT PARK,Multifamily Housing,93000.0,1920.0,1,,100,645093.0,,,,,6.9,21.8,7.0,22.1,119.3,1.3,41.8808242,-87.72327934,"(41.8808242, -87.72327934)",2017-102323,23,27,21572.0,658,11
2021,102331,Walt Disney Magnet Elementary School,Submitted,4140 N Marine Dr,60613,1.0,False,UPTOWN,K-12 School,260140.0,1973.0,2,,19,12846524.6,5943700.0,0.0,0.0,,72.2,162.3,75.0,165.2,2150.5,8.3,41.95672595,-87.64700522,"(41.95672595, -87.64700522)",2021-102331,39,31,21186.0,636,37
2020,102332,Truman College,Submitted Data,1145 W Wilson Ave,60640,4.0,False,UPTOWN,College/University,954142.0,1976.0,3,,,20750764.5,25481602.0,,,,48.5,88.9,50.6,91.2,4592.0,4.8,41.9645338,-87.65900659,"(41.9645338, -87.65900659)",2020-102332,39,31,22616.0,241,37
2021,102335,Park Shore,Submitted,4302 4312 N SHERIDAN RD,60613,4.0,False,UPTOWN,Multifamily Housing,53136.0,1970.0,1,,86,608325.8,2388400.0,0.0,0.0,,56.4,79.3,56.4,79.3,213.7,4.0,41.95402016,-87.6620278,"(41.95402016, -87.6620278)",2021-102335,18,57,21186.0,725,13
2021,102336,Institute of Cultural Affairs - Greenrise,Submitted,4750 N Sheridan Rd,60640,4.0,False,UPTOWN,Office,206154.0,1921.0,1,,90,2825432.8,9422831.0,0.0,0.0,,67.2,92.4,72.5,97.2,904.0,5.0,41.96865627,-87.65524596,"(41.96865627, -87.65524596)",2021-102336,39,31,22616.0,241,37
2021,102337,Buena Shores,Submitted,833  W BUENA AVE,60613,3.0,False,UPTOWN,Multifamily Housing,211558.0,1970.0,1,,70,3761132.9,12717899.8,0.0,0.0,,88.9,128.9,95.4,134.7,1212.7,6.5,41.95402016,-87.6620278,"(41.95402016, -87.6620278)",2021-102337,18,57,21186.0,725,13
2021,102340,Grand on Grand Condominium Association,Submitted,200  W GRAND AVE,60654,1.0,False,NEAR NORTH SIDE,Multifamily Housing,192102.0,2004.0,1,,9,5717314.4,10243789.2,0.0,0.0,,108.5,181.9,113.1,183.8,1360.7,9.2,41.89198218,-87.63699623,"(41.89198218, -87.63699623)",2021-102340,36,37,4446.0,652,22
2021,102362,"MLL 1945 Wilson, LLC",Submitted,1945 W WILSON AVE,60640,nan,True,LINCOLN SQUARE,Mixed Use Property,68070.0,1979.0,1,,,2422979.6,1940063.4,0.0,0.0,,64.1,129.6,67.1,131.9,449.1,6.6,41.96509261,-87.67778064,"(41.96509261, -87.67778064)",2021-102362,18,6,22616.0,225,13
2021,102363,Albert G Lane Technical High School,Submitted,2501 W Addison St,60618,3.5,False,NORTH CENTER,K-12 School,713935.0,1934.0,2,,80,11675185.0,30899770.6,0.0,0.0,,59.6,91.2,66.0,97.9,3308.8,4.6,41.94498741,-87.69077957,"(41.94498741, -87.69077957)",2021-102363,18,46,21538.0,110,13
2021,102365,Lake View High School,Submitted,4015 N Ashland Ave,60613,3.5,False,LAKE VIEW,K-12 School,266099.0,1898.0,3,,73,4440349.5,13535600.0,0.0,0.0,,67.6,100.1,75.0,107.9,1353.1,5.1,41.95525436,-87.66860456,"(41.95525436, -87.66860456)",2021-102365,18,57,21186.0,650,13
2021,102368,Bradley Business Center II,Submitted,2500 W Bradley Pl,60618,nan,True,NORTH CENTER,Other,566000.0,1956.0,1,,,6928994.1,7416605.0,0.0,0.0,,38.4,72.7,40.8,75.2,1383.6,3.7,41.95030519,-87.69252546,"(41.95030519, -87.69252546)",2021-102368,18,46,21538.0,110,13
2021,102380,4600 N. Cumberland Condominium Association,Submitted,4600  N CUMBERLAND AVE,60656,4.0,False,OHARE,Multifamily Housing,62341.0,1974.0,1,,81,1142589.7,3390133.5,0.0,0.0,,75.9,113.2,80.7,116.6,343.3,5.7,41.97087009,-87.79892589,"(41.97087009, -87.79892589)",2021-102380,29,36,4448.0,700,34
2021,102397,Walsh Park Apartments,Submitted,1734  N PAULINA ST,60622,3.5,False,WEST TOWN,Multifamily Housing,95110.0,1984.0,1,,73,3310161.4,2056440.5,0.0,0.0,,56.4,120.2,59.1,124.9,582.0,6.1,41.90225377,-87.68447845,"(41.90225377, -87.68447845)",2021-102397,11,25,21560.0,541,16
2021,102408,Mundelein Center- ID#102408,Submitted,1020 W Sheridan Rd,60660,4.0,False,ROGERS PARK,College/University,206160.0,1930.0,1,,,7306671.8,12609667.9,0.0,0.0,,96.6,163.5,105.6,172.9,1713.3,8.3,41.99829028,-87.65676288,"(41.99829028, -87.65676288)",2021-102408,5,10,4451.0,267,3
2021,102409,Nicholas Senn High School,Submitted,5900 N Glenwood Ave,60660,1.0,False,EDGEWATER,K-12 School,291204.0,1913.0,3,,30,8531085.0,21029918.8,0.0,0.0,,101.5,157.9,111.1,167.9,2335.5,8.0,41.98901511,-87.66668203,"(41.98901511, -87.66668203)",2021-102409,16,76,4451.0,539,40
2021,102435,60 W Erie Condo,Submitted,60 W ERIE ST,60654,1.0,False,NEAR NORTH SIDE,Multifamily Housing,94430.0,2003.0,1,,1,4937068.5,1025891.8,0.0,0.0,,86.7,216.6,91.0,227.9,759.6,11.0,41.89158015,-87.63783734,"(41.89158015, -87.63783734)",2021-102435,36,37,4446.0,652,22
2019,102451,Abbott,Submitted,947 E 58th St,60637,4.0,False,HYDE PARK,Laboratory,103005.0,1926.0,1,,,2376594.8,,10053479.9,,,120.7,182.0,117.2,,1062.9,10.3,41.7881573,-87.60321094,"(41.7881573, -87.60321094)",2019-102451,33,8,22260.0,154,32
2021,102452,Regenstein Library,Submitted,1100 E 57th St,60637,1.0,False,HYDE PARK,Library,604950.0,1971.0,1,,,22476099.6,370649.0,47255761.6,31534490.0,,168.0,246.1,165.2,243.5,8029.5,13.3,41.79221307,-87.59994981,"(41.79221307, -87.59994981)",2021-102452,33,8,22260.0,154,32
2021,102455,Harper Center (Booth School),Submitted,5807 S Woodlawn Ave,60637,nan,True,HYDE PARK,College/University,484154.0,2004.0,1,,,22758299.3,325632.0,20122375.0,0.0,,103.0,210.5,103.6,209.1,4603.9,11.0,41.7891404,-87.59555249,"(41.7891404, -87.59555249)",2021-102455,33,8,22260.0,503,32
2021,102456,University High School,Submitted,5840 S Kenwood Ave,60637,1.0,False,HYDE PARK,K-12 School,90595.0,1961.0,1,,9,2854454.3,1473926.0,7104980.8,2492880.1,,153.7,224.7,156.3,229.1,1089.1,12.0,41.78855503,-87.59395643,"(41.78855503, -87.59395643)",2021-102456,33,8,22260.0,503,32
2021,102460,Museum of Science and Industry,Submitted,5700 S Lake Shore Dr,60637,4.0,False,HYDE PARK,Museum,1211750.0,1893.0,1,,,34007516.6,19338559.2,0.0,0.0,,44.0,95.3,46.4,97.8,5884.3,4.9,41.79055467,-87.58295123,"(41.79055467, -87.58295123)",2021-102460,33,8,22260.0,502,32
2021,102487,Pine Grove Apartments,Submitted,3639 3649 N PINE GROVE AVE,60613,2.5,False,LAKE VIEW,Multifamily Housing,145338.0,1968.0,1,,57,1900559.1,9055168.1,0.0,0.0,,109.2,147.8,118.0,157.1,752.4,7.5,41.95402016,-87.6620278,"(41.95402016, -87.6620278)",2021-102487,18,57,21186.0,725,13
2021,102532,Advocate Trinity Hospital,Submitted,2320 E 93rd St,60617,3.0,False,CALUMET HEIGHTS,Hospital (General Medical & Surgical),637903.0,1960.0,1,,68,28868225.7,53781705.7,0.0,0.0,,225.0,373.7,230.0,375.6,6979.8,19.0,41.72673518,-87.56695195,"(41.72673518, -87.56695195)",2021-102532,37,44,21202.0,492,43
2020,102544,Olive-Harvey College,Submitted Data,10001 S Woodlawn Ave,60628,3.0,False,PULLMAN,College/University,635874.0,1981.0,1,,,17826775.4,16167799.4,,,,85.5,168.2,87.9,170.7,3641.0,9.2,41.71336917,-87.59225911,"(41.71336917, -87.59225911)",2020-102544,35,47,21861.0,643,9
2020,102545,Chicago Vocational Career Academy -CPS,Submitted Data,2106 E 87th St,60617,4.0,False,AVALON PARK,K-12 School,684248.0,1941.0,1,,87,7508540.8,29106298.5,,,,53.5,75.4,58.7,80.9,2717.8,4.0,41.737133,-87.573023,"(41.737133, -87.573023)",2020-102545,35,41,21202.0,431,9
2021,102552,Palmer Kedzie Condominium Association,Submitted,3127 3139 W PALMER ST,60647,2.0,False,LOGAN SQUARE,Multifamily Housing,60000.0,2005.0,1,,44,960648.3,4402361.0,0.0,0.0,,89.4,121.9,96.3,127.6,371.0,6.2,41.92075046,-87.70152825,"(41.92075046, -87.70152825)",2021-102552,41,23,22535.0,322,15
2021,102556,Gateway Apartments (Sneider Apartments),Submitted,7450  N ROGERS AVE,60626,1.0,False,ROGERS PARK,Multifamily Housing,97200.0,2003.0,1,,24,3413594.1,6133000.3,0.0,0.0,,98.2,164.5,104.8,168.1,812.8,8.4,42.01036185,-87.66829765,"(42.01036185, -87.66829765)",2021-102556,5,10,21853.0,358,3
2021,102568,Grace Shores,Submitted,639  W GRACE ST,60613,2.5,False,LAKE VIEW,Multifamily Housing,69353.0,1973.0,1,,57,2013241.4,6250299.6,0.0,0.0,,156.1,230.4,164.7,239.5,619.5,11.7,41.95402016,-87.6620278,"(41.95402016, -87.6620278)",2021-102568,18,57,21186.0,725,13
2021,102585,Chicago State University Campus,Submitted,9501 S Martin Luther King Dr,60628,2.0,False,ROSELAND,College/University,1170487.0,1971.0,12,,,59175987.9,78429800.6,0.0,0.0,,117.6,211.9,124.8,219.5,12617.7,10.8,41.71825101,-87.61135684,"(41.71825101, -87.61135684)",2021-102585,43,45,21861.0,567,31
2020,102587,Carver Millitary Academy -CPS,Submitted Data,13100 S Carver Dr,60827,3.0,False,RIVERDALE,K-12 School,298689.0,1955.0,1,,45,9330412.0,11850289.4,,,,70.9,129.1,74.8,133.2,2085.6,7.0,41.657559,-87.592115,"(41.657559, -87.592115)",2020-102587,43,51,21861.0,9,30
2021,102610,420 W. Ontario Residential Condominium Association,Submitted,420  432 W ONTARIO ST,60654,4.0,False,NEAR NORTH SIDE,Multifamily Housing,82716.0,1999.0,1,,100,993134.9,1078580.5,0.0,0.0,,25.0,47.3,24.7,46.4,199.1,2.4,41.89198218,-87.63699623,"(41.89198218, -87.63699623)",2021-102610,36,37,4446.0,652,22
2020,102613,,Submitted Data,7914 7932 S WABASH AVE,60619,1.0,False,CHATHAM,Multifamily Housing,30268.0,1927.0,1,,,619329.2,5234960.0,,,,193.4,238.9,204.1,250.1,374.7,12.4,41.74401302,-87.60549928,"(41.74401302, -87.60549928)",2020-102613,35,40,21546.0,140,31
2021,102643,234-Senior Suites of Jefferson Park,Submitted,5400  N NORTHWEST HWY,60630,1.0,False,JEFFERSON PARK,Senior Living Community,60000.0,2004.0,1,,10,1595618.4,5109400.1,0.0,0.0,,111.8,163.9,121.5,172.7,499.3,8.3,41.97200414,-87.75756578,"(41.97200414, -87.75756578)",2021-102643,50,11,21869.0,129,20
2016,102644,Glenwood Apartments,Submitted,6701 N Glenwood Ave,60626,nan,,ROGERS PARK,Multifamily Housing,54770.0,1917.0,1,,95,618210.0,2761161.3,,,,61.7,88.4,64.3,90.0,260.6,4.8,42.01036185,-87.66829765,"(42.01036185, -87.66829765)",2016-102644,5,10,21853.0,358,3
2021,102690,1250 N LaSalle Condominium Association,Submitted,1250  N LASALLE DR,60610,4.0,False,NEAR NORTH SIDE,Multifamily Housing,185964.0,1987.0,1,,87,3851840.9,5597066.0,0.0,0.0,,58.7,103.5,61.2,104.7,847.4,5.3,41.9037528,-87.63558845,"(41.9037528, -87.63558845)",2021-102690,46,37,14926.0,148,41
2021,102705,(IL0663) - 65 E Goethe,Submitted,65  E GOETHE ST,60610,1.0,False,NEAR NORTH SIDE,Multifamily Housing,126330.0,2002.0,1,,,8529379.0,10432265.8,0.0,0.0,,165.1,303.3,166.4,300.5,1772.3,15.4,41.9037528,-87.63558845,"(41.9037528, -87.63558845)",2021-102705,46,37,14926.0,148,41
2021,102725,237-Senior Suites of W. Humboldt Park,Submitted,3656  W HURON ST,60624,1.0,False,HUMBOLDT PARK,Senior Living Community,70370.0,2009.0,1,,19,1792095.0,4248400.1,0.0,0.0,,85.8,134.7,91.7,139.3,481.6,6.8,41.8808242,-87.72327934,"(41.8808242, -87.72327934)",2021-102725,23,27,21572.0,658,11
2018,102731,1025 W Hollywood,Submitted,1025 W Hollywood,60660,4.0,False,EDGEWATER,Multifamily Housing,62000.0,1970.0,1,3059.0,96,132419.7,4758399.9,,,,78.9,86.6,77.8,85.5,274.8,4.4,41.99090057,-87.66660744,"(41.99090057, -87.66660744)",2018-102731,16,76,4451.0,536,40
2021,102745,Harper Place Condominium Association,Submitted,5309 5343 S HARPER AVE,60615,3.0,False,HYDE PARK,Multifamily Housing,88384.0,1920.0,1,,68,1589817.0,3817756.5,0.0,0.0,,61.2,95.7,64.8,99.5,429.8,4.9,41.80224043,-87.60332678,"(41.80224043, -87.60332678)",2021-102745,33,8,21192.0,147,1
2021,102766,Brandon Shores Condo Association,Submitted,6150  N KENMORE AVE,60660,4.0,False,EDGEWATER,Multifamily Housing,77900.0,1962.0,1,,73,1334238.7,4166483.5,0.0,0.0,,75.4,111.1,82.9,118.4,411.9,5.6,41.99090057,-87.66660744,"(41.99090057, -87.66660744)",2021-102766,16,76,4451.0,536,40
2021,102803,235-Senior Suites of New City,Submitted,4845  S WESTERN AVE,60609,4.0,False,NEW CITY,Senior Living Community,89556.0,2004.0,1,,64,2645484.0,3634000.0,0.0,0.0,,70.1,125.3,73.2,127.8,570.9,6.4,41.81195152,-87.65512794,"(41.81195152, -87.65512794)",2021-102803,48,59,14924.0,123,26
2021,102809,1916-34 W. Winona / 5103-5115 N. Winchester,Submitted,5101 5111 N WINCHESTER AVE,60640,4.0,False,LINCOLN SQUARE,Multifamily Housing,68400.0,1903.0,1,,84,564713.3,3581458.3,0.0,0.0,,60.6,78.1,65.3,82.4,270.9,4.0,41.97223008,-87.6645957,"(41.97223008, -87.6645957)",2021-102809,18,31,22616.0,633,37
2018,102825,Ravenswood Court,Submitted,4510-4518 N. Ashland,60640,4.0,False,UPTOWN,Multifamily Housing,67500.0,2003.0,1,1123.0,94,342291.8,3679999.9,,,,59.6,71.4,57.5,69.2,252.4,3.7,41.97223008,-87.6645957,"(41.97223008, -87.6645957)",2018-102825,18,31,22616.0,633,37
2021,102838,233-Senior Suites of Hegewisch,Submitted,13550  S AVENUE O,60633,2.0,False,HEGEWISCH,Senior Living Community,60600.0,2002.0,1,,48,1594581.1,3806999.9,0.0,0.0,,89.1,139.6,95.2,145.6,430.0,7.1,41.65140357,-87.54582933,"(41.65140357, -87.54582933)",2021-102838,47,52,22250.0,787,47
2018,102854,Hyde Park West Apartments,Submitted,5325 S. Cottage Grove Ave,60615,1.0,False,HYDE PARK,Multifamily Housing,146499.0,1968.0,5,8191.0,1,3296568.6,337102993.2,,,,2323.6,2479.1,2323.0,2477.4,18453.6,126.0,41.80224043,-87.60332678,"(41.80224043, -87.60332678)",2018-102854,33,8,21192.0,147,1
2019,102914,Brainerd Senior Center (8915 S. Loomis St.),Submitted,8915  S LOOMIS ST,60620,3.5,False,WASHINGTON HEIGHTS,Multifamily Housing,72000.0,2000.0,1,,79,1084357.5,2693763.3,,,,52.5,81.5,51.0,,323.5,4.5,41.74023286,-87.65352897,"(41.74023286, -87.65352897)",2019-102914,13,70,21554.0,531,18
2017,102926,Wooded Isle Apartments,Submitted,5736 S Stony Island Ave,60637,nan,,HYDE PARK,Multifamily Housing,59558.0,1924.0,1,,100,431178.0,320112.0,,,,12.6,28.4,12.7,28.5,96.7,1.6,41.78046327,-87.6053081,"(41.78046327, -87.6053081)",2017-102926,4,9,22260.0,470,53
2020,102946,,Submitted Data,7947  S SOUTH CHICAGO AVE,60617,4.0,False,SOUTH CHICAGO,Multifamily Housing,61000.0,2001.0,1,,63,1509914.9,3034374.2,,,,74.5,121.5,79.0,126.3,396.8,6.5,41.7272413,-87.55513633,"(41.7272413, -87.55513633)",2020-102946,47,44,21202.0,493,43
2020,102987,,Submitted Data,4048  S LAKE PARK AVE,60653,2.5,False,OAKLAND,Multifamily Housing,55828.0,1972.0,1,,39,1044969.3,5840400.1,,,,123.3,162.3,127.8,167.0,473.3,8.5,41.82021138,-87.61246867,"(41.82021138, -87.61246867)",2020-102987,10,4,4301.0,583,1
2017,103036,SEELEY BUILDING,Submitted,4424 4432 N SEELEY AVE,60625,nan,,LINCOLN SQUARE,Multifamily Housing,58000.0,1927.0,1,,100,97123.0,2185623.0,,,,39.4,44.8,43.7,49.4,134.0,2.3,41.97208235,-87.70234945,"(41.97208235, -87.70234945)",2017-103036,24,6,21849.0,620,46
2021,103182,1000 N. LaSalle Apartments,Submitted,1000  N LASALLE DR,60610,1.0,False,NEAR NORTH SIDE,Multifamily Housing,120728.0,1988.0,1,,22,3251721.3,9132836.5,0.0,0.0,,102.6,154.8,110.2,160.7,949.5,7.9,41.9037528,-87.63558845,"(41.9037528, -87.63558845)",2021-103182,46,37,14926.0,148,41
2019,103264,South Commons - 2941 S Michigan,Submitted,2941 S Michigan Ave,60616,2.0,False,DOUGLAS,Multifamily Housing,67133.0,1964.0,1,,42,1112366.6,6482781.2,,,,113.1,147.8,112.2,,529.4,7.9,41.84550365,-87.63055693,"(41.84550365, -87.63055693)",2019-103264,48,35,21194.0,346,26
2020,103271,,Submitted Data,1344  N DEARBORN ST,60610,4.0,False,NEAR NORTH SIDE,Multifamily Housing,130200.0,1963.0,1,,90,1761489.4,5403018.4,,,,55.0,81.5,57.1,83.0,561.9,4.3,41.9037528,-87.63558845,"(41.9037528, -87.63558845)",2020-103271,46,37,14926.0,148,41
2021,103273,"THE SAUSAGE KING OF CHICAGO, LLC",Submitted,221  E 121ST PL,60628,3.0,False,WEST PULLMAN,Multifamily Housing,154140.0,1973.0,3,,66,2619839.4,12022764.3,0.0,0.0,,95.0,129.5,101.1,134.8,1012.8,6.6,41.69755188,-87.61477587,"(41.69755188, -87.61477587)",2021-103273,43,45,21861.0,237,30
2021,103278,33 W. Huron Condominium Association,Submitted,33  W HURON ST,60654,4.0,False,NEAR NORTH SIDE,Multifamily Housing,202071.0,1998.0,1,,99,2326585.5,5505413.5,0.0,0.0,,42.2,66.3,44.4,67.9,624.7,3.4,41.89198218,-87.63699623,"(41.89198218, -87.63699623)",2021-103278,36,37,4446.0,652,22
2021,103310,Marshall Field Garden Apartment Homes,Submitted,1336 1352 N SEDGWICK ST,60610,3.5,False,NEAR NORTH SIDE,Multifamily Housing,583000.0,1929.0,10,,77,10509123.8,40535471.0,0.0,0.0,,87.6,123.5,93.4,128.3,3654.0,6.3,41.9037528,-87.63558845,"(41.9037528, -87.63558845)",2021-103310,46,37,14926.0,148,41
2021,103312,199 East Lake Shore Drive,Submitted,199  E LAKE SHORE DR,60611,2.0,False,NEAR NORTH SIDE,Multifamily Housing,69150.0,1913.0,1,,,760770.2,5122999.7,0.0,0.0,,94.9,121.1,104.0,130.7,380.8,6.1,41.89579275,-87.62247957,"(41.89579275, -87.62247957)",2021-103312,11,37,21182.0,158,22
2021,103315,(IL395) - 230 East Ontario St,Submitted,230  E ONTARIO ST,60611,1.0,False,NEAR NORTH SIDE,Multifamily Housing,50000.0,1969.0,1,,1,3793680.0,5355720.6,0.0,0.0,,183.0,324.9,180.2,317.1,826.3,16.5,41.89579275,-87.62247957,"(41.89579275, -87.62247957)",2021-103315,11,37,21182.0,158,22
2021,103317,(IL504) - 33E. Condo Association,Submitted,27 39 E CEDAR ST,60611,4.0,False,NEAR NORTH SIDE,Multifamily Housing,184432.0,1958.0,1,,87,2223051.4,7694486.9,0.0,0.0,,61.1,88.1,66.1,92.1,726.2,4.5,41.89579275,-87.62247957,"(41.89579275, -87.62247957)",2021-103317,11,37,21182.0,158,22
2017,103573,Woodlawn Partners,Submitted,6445 6458 S Kenwood Ave,60637,nan,,WOODLAWN,Multifamily Housing,71595.0,1923.0,1,,100,1376996.0,276507.0,,,,23.1,64.4,23.1,64.4,269.3,3.8,41.78046327,-87.6053081,"(41.78046327, -87.6053081)",2017-103573,4,9,22260.0,470,53
2021,103594,NBC Tower,Submitted,455 N Cityfront Plaza Dr,60611,3.0,False,NEAR NORTH SIDE,Office,1164458.0,1988.0,1,,64,73501679.3,0.0,0.0,0.0,,78.2,219.1,78.2,219.1,10498.0,11.2,41.890071,-87.621562,"(41.890071, -87.621562)",2021-103594,36,37,21182.0,159,22
2021,103595,141 West Jackson Boulevard,Submitted,141 W Jackson Blvd,60604,4.0,False,LOOP,Office,1559956.0,1930.0,1,,84,66045572.2,0.0,0.0,35227305.7,,64.9,139.1,62.4,136.8,11289.6,7.2,41.87750025,-87.63227855,"(41.87750025, -87.63227855)",2021-103595,36,38,14912.0,92,48
2020,103596,550 W Jackson,Submitted Data,550 W Jackson Blvd,60661,3.5,False,NEAR WEST SIDE,Office,480117.0,2001.0,1,,75,26256701.3,,,,,59.6,166.9,60.8,170.2,4097.9,9.3,41.8783471,-87.64152501,"(41.8783471, -87.64152501)",2020-103596,36,29,4452.0,786,48
2021,103597,30 North LaSalle Street,Submitted,30 N LaSalle St,60602,3.5,False,LOOP,Office,1095104.0,1974.0,1,,77,29353504.2,33566969.4,0.0,0.0,,57.5,107.2,60.7,110.7,5975.4,5.5,41.88284628,-87.63290243,"(41.88284628, -87.63290243)",2021-103597,36,38,14310.0,92,22
2021,103598,222 North LaSalle,Submitted,222 N LaSalle St,60601,4.0,False,LOOP,Office,1246961.0,1986.0,1,,81,46067186.2,0.0,0.0,0.0,,37.8,105.9,38.2,106.9,6579.6,5.4,41.88651518,-87.6332446,"(41.88651518, -87.6332446)",2021-103598,36,38,14309.0,92,22
2021,103600,10 South LaSalle Street,Submitted,10 S LaSalle St,60603,3.0,False,LOOP,Office,871962.0,1986.0,1,,70,42267037.1,501611.4,0.0,0.0,,49.0,136.3,50.9,141.5,6063.5,7.0,41.88160573,-87.6327278,"(41.88160573, -87.6327278)",2021-103600,36,38,14311.0,92,22
2020,103601,120 S LaSalle St,Submitted Data,120 S LaSalle St,60603,4.0,False,LOOP,Office,760892.0,1929.0,1,,82,15899942.2,17882478.9,,6473903.7,,52.9,90.9,54.2,92.3,3772.5,5.0,41.88035359,-87.63280586,"(41.88035359, -87.63280586)",2020-103601,36,38,14311.0,92,22
2021,103602,190 South LaSalle,Submitted,190 S LaSalle St,60603,3.0,False,LOOP,Office,901459.0,1985.0,1,,66,56164386.1,0.0,0.0,0.0,,63.9,178.9,65.5,183.5,8021.8,9.1,41.8797561,-87.63268685,"(41.8797561, -87.63268685)",2021-103602,36,38,14311.0,92,22
2021,103604,525 West Monroe,Submitted,525 W Monroe St,60661,3.5,False,NEAR WEST SIDE,Office,1073992.0,1983.0,1,,78,43136858.3,668274.1,0.0,0.0,,42.6,118.1,43.6,120.8,6197.1,6.0,41.880543,-87.640541,"(41.880543, -87.640541)",2021-103604,36,29,14914.0,786,48
2021,103605,515 North State,Submitted,515 N STATE ST,60654,3.5,False,NEAR NORTH SIDE,Office,757990.0,1990.0,1,,76,34422132.6,0.0,0.0,0.0,,45.4,127.2,47.3,132.4,4916.4,6.5,41.89145096,-87.62732703,"(41.89145096, -87.62732703)",2021-103605,36,37,21182.0,626,22
2021,103606,Willis Tower (Rivion LLC),Submitted,233 S Wacker Dr,60606,2.5,False,LOOP,Office,4600624.0,1973.0,1,,51,325324237.0,27896367.8,0.0,0.0,,77.9,207.3,78.8,208.2,47946.6,10.6,41.87887581,-87.63587349,"(41.87887581, -87.63587349)",2021-103606,36,38,14914.0,92,48
2020,103608,329 W 18th St,Submitted Data,329 W 18th St,60616,3.0,False,LOWER WEST SIDE,Other,501360.0,1990.0,1,,,10485877.6,3464126.9,,,,27.8,65.8,28.3,66.2,1820.5,3.6,41.857685,-87.636254,"(41.857685, -87.636254)",2020-103608,26,33,21194.0,126,8
2021,103611,Clark-Adams,Submitted,105 W Adams St,60603,nan,True,LOOP,Office,490273.0,1927.0,1,,,15177210.6,24671241.8,0.0,0.0,,81.3,139.5,87.0,145.5,3478.1,7.1,41.879395,-87.630986,"(41.879395, -87.630986)",2021-103611,36,38,14912.0,92,22
2021,103614,Ann & Robert H. Lurie Children's Hospital of Chicago,Submitted,225 E Chicago Ave,60611,4.0,False,NEAR NORTH SIDE,Hospital (General Medical & Surgical),1287909.0,2012.0,1,,77,113687260.0,161351087.8,0.0,0.0,,215.1,380.2,218.3,380.9,24951.7,19.4,41.896764,-87.621559,"(41.896764, -87.621559)",2021-103614,11,37,21182.0,158,22
2021,103615,NMH Prentice Womens Hospital,Submitted,250 E Superior St,60611,4.0,False,NEAR NORTH SIDE,Hospital (General Medical & Surgical),945000.0,2007.0,1,,65,86055519.2,107165997.5,0.0,0.0,,204.5,374.1,206.4,373.0,17983.1,19.0,41.89627286,-87.62088103,"(41.89627286, -87.62088103)",2021-103615,11,37,21182.0,158,22
2021,103617,33 E Congress,Submitted,33 E Congress Pkwy,60605,3.0,False,LOOP,College/University,153876.0,1925.0,0,,,6397677.4,4061905.0,0.0,0.0,,68.0,144.1,72.1,148.5,1129.5,7.3,41.87540112,-87.62651136,"(41.87540112, -87.62651136)",2021-103617,10,38,14913.0,367,48
2016,103620,Grossinger City Autoplex,Submitted,1530 N Dayton St,60642,nan,,NEAR NORTH SIDE,Automobile Dealership,275000.0,2008.0,1,,,10212146.7,7194402.6,,,,63.3,144.1,68.0,149.5,2264.4,8.2,41.910106,-87.649495,"(41.910106, -87.649495)",2016-103620,11,37,22620.0,108,51
2021,103621,SpringHill Suites - Residence Inn,Submitted,400 410 N Dearborn St,60654,3.5,False,NEAR NORTH SIDE,Hotel,353000.0,2008.0,1,,55,14885771.2,21058501.1,0.0,0.0,,101.8,180.7,105.5,184.6,3244.6,9.2,41.88948997,-87.62960735,"(41.88948997, -87.62960735)",2021-103621,36,37,4446.0,670,22
2016,103624,Illinois Institute of Technology,Submitted,3300 South Federal Street,60616,nan,,DOUGLAS,College/University,2944091.0,1896.0,50,,,149363712.0,346410557.1,,,,168.4,282.8,181.7,296.8,45930.4,15.6,41.8342998,-87.6292618,"(41.8342998, -87.6292618)",2016-103624,9,1,21194.0,25,12
2021,103626,151 North Franklin,Submitted,151 N Franklin St,60606,3.5,False,LOOP,Office,962120.0,2018.0,1,,76,35354529.8,762790.0,0.0,20861003.5,,60.1,125.3,59.3,127.2,6189.5,6.5,41.88455237,-87.63533591,"(41.88455237, -87.63533591)",2021-103626,36,38,14914.0,92,22
2021,103628,701190 - 1000 West Fulton Market,Submitted,1000 W Fulton St,60607,3.5,False,NEAR WEST SIDE,Office,622779.0,1923.0,1,,71,19890625.9,19096653.1,0.0,0.0,,69.3,134.6,71.1,136.5,3855.2,6.9,41.88677646,-87.65227883,"(41.88677646, -87.65227883)",2021-103628,46,29,14917.0,63,41
2021,103630,Stroger Hospital Campus,Submitted,1901 W Harrison St,60612,1.0,False,NEAR WEST SIDE,Hospital (General Medical & Surgical),1596300.0,2002.0,4,,11,173837373.8,323058061.3,0.0,0.0,,311.3,517.4,317.4,520.6,41987.8,26.3,41.874071,-87.674135,"(41.874071, -87.674135)",2021-103630,46,29,21184.0,5,48
2021,103632,Chicago Campus 2,Submitted,251 E Huron St,60611,3.0,False,NEAR NORTH SIDE,College/University,131242.0,1926.0,3,,,3277772.6,8828436.1,0.0,0.0,,92.2,140.6,96.8,143.4,937.1,7.1,41.89458666,-87.62152834,"(41.89458666, -87.62152834)",2021-103632,36,37,21182.0,158,22
2021,103634,Lewis & O'Malley,Submitted,25 E Jackson Blvd,60604,4.0,False,LOOP,College/University,380371.0,1928.0,1,,,12170327.6,14372992.6,0.0,0.0,,69.8,129.3,74.6,134.3,2501.7,6.6,41.878202,-87.626867,"(41.878202, -87.626867)",2021-103634,10,38,14912.0,367,48
2021,103638,The Field Museum,Submitted,1400 S Lake Shore Dr,60605,nan,True,NEAR SOUTH SIDE,Mixed Use Property,1280537.0,1921.0,1,,,58934834.5,75635359.6,0.0,0.0,,105.1,190.7,108.1,193.9,12416.7,9.7,41.866211,-87.61703464,"(41.866211, -87.61703464)",2021-103638,10,34,14913.0,374,48
2021,103639,121 West Wacker Drive,Submitted,221 N LaSalle St,60601,1.0,False,LOOP,Office,540618.0,1930.0,1,,29,12687300.2,80154574.7,0.0,0.0,,179.2,231.0,196.8,249.4,6069.5,11.7,41.88653309,-87.63199926,"(41.88653309, -87.63199926)",2021-103639,36,38,14309.0,92,22
2021,103640,One North LaSalle,Submitted,1 N LaSalle St,60602,4.0,False,LOOP,Office,554777.0,1929.0,1,,81,11849869.2,20903133.8,0.0,0.0,,59.0,99.4,63.6,104.1,2802.7,5.1,41.8823233,-87.6320043,"(41.8823233, -87.6320043)",2021-103640,36,38,14310.0,92,22
2021,103641,33 North LaSalle Street,Submitted,33 N LaSalle St,60602,4.0,False,LOOP,Office,477171.0,1929.0,1,,71,13430785.3,24031082.3,0.0,1168632.0,,81.0,133.9,87.1,140.4,3256.3,6.8,41.88286478,-87.63205333,"(41.88286478, -87.63205333)",2021-103641,36,38,14310.0,92,22
2021,103643,180 North LaSalle,Submitted,180 N LaSalle St,60601,3.5,False,LOOP,Office,859786.0,1972.0,1,,76,21818218.2,22096230.8,0.0,17614031.6,,71.6,116.7,72.4,117.9,5218.1,6.1,41.88538772,-87.63289117,"(41.88538772, -87.63289117)",2021-103643,36,38,14309.0,92,22
2021,103644,Onni 200 LaSalle,Submitted,200 N LaSalle Ave,60601,3.0,False,LOOP,Office,698645.0,1984.0,1,,69,37178243.8,0.0,0.0,0.0,,53.2,149.0,54.2,151.9,5310.0,7.6,41.88607935,-87.63304163,"(41.88607935, -87.63304163)",2021-103644,36,38,14309.0,92,22
2021,103645,203 North LaSalle,Submitted,203 N LaSalle St,60601,3.5,False,LOOP,Office,1155969.0,1985.0,1,,75,35488450.8,424140.0,0.0,0.0,,57.5,159.8,59.5,165.2,5091.2,8.1,41.88606221,-87.63169041,"(41.88606221, -87.63169041)",2021-103645,36,38,14309.0,92,22
2021,103647,135 S LaSalle Property LLC,Submitted,135 S LaSalle St,60603,3.0,False,LOOP,Office,1547120.0,1934.0,1,,61,37324823.4,69349344.6,0.0,20751216.1,,82.4,126.8,85.7,130.6,10108.0,6.5,41.87977276,-87.63155683,"(41.87977276, -87.63155683)",2021-103647,36,38,14311.0,92,22
2021,103651,425 South Financial,Submitted,440 S LaSalle St,60605,4.0,False,LOOP,Office,1237300.0,1984.0,1,,100,28160959.1,194585.1,0.0,0.0,,22.9,63.9,,,4032.5,3.3,41.87595944,-87.63219354,"(41.87595944, -87.63219354)",2021-103651,10,38,14913.0,92,48
2021,103653,350 North Orleans (Rivion LLC),Submitted,350 N Orleans St,60654,4.0,False,NEAR NORTH SIDE,Office,1883966.0,1975.0,1,,67,94963773.5,3860.0,0.0,28655408.3,,65.6,155.0,65.4,157.3,15073.7,8.0,41.88851686,-87.63777722,"(41.88851686, -87.63777722)",2021-103653,36,37,4446.0,652,22
2021,103655,Stein Place,Submitted,5825  S DORCHESTER AVE,60637,4.0,False,HYDE PARK,Multifamily Housing,81561.0,1966.0,1,,94,738916.0,2715.0,4781969.8,0.0,,67.7,95.9,73.6,103.3,423.2,5.2,41.78046327,-87.6053081,"(41.78046327, -87.6053081)",2021-103655,4,9,22260.0,470,53
2021,103656,"theMART, Chicago",Submitted,222 Merchandise Mart Plz,60654,nan,True,NEAR NORTH SIDE,Office,4259185.0,1930.0,1,,,95434902.4,77881660.4,0.0,39374543.3,,51.5,93.2,52.5,94.5,19842.3,4.8,41.88798761,-87.63534171,"(41.88798761, -87.63534171)",2021-103656,36,37,4446.0,652,22
2021,103661,One Magnificent Mile,Submitted,980 N Michigan Ave,60611,2.5,False,NEAR NORTH SIDE,Mixed Use Property,1047675.0,1983.0,1,,54,51657611.8,0.0,0.0,0.0,,50.8,142.1,52.5,147.1,7378.1,7.2,41.90055628,-87.62421483,"(41.90055628, -87.62421483)",2021-103661,36,37,21182.0,104,22
2020,103664,Northern Trust Headquarters,Submitted Data,50 S LaSalle St,60603,4.0,False,LOOP,Financial Office,581260.0,1963.0,1,,79,16877412.2,14827622.5,,,,54.7,108.3,56.4,110.1,3421.6,5.9,41.88103427,-87.63261241,"(41.88103427, -87.63261241)",2020-103664,36,38,14311.0,92,22
2015,103669,Soldier Field,Submitted,1410 South Museum Campus Drive,60605,nan,,NEAR SOUTH SIDE,Stadium (Open),1548634.0,1924.0,1,,,108529613.0,16899451.0,,,,81.0,231.5,82.7,235.7,22703.0,14.7,41.863884,-87.614512,"(41.863884, -87.614512)",2015-103669,10,34,14913.0,374,48
2021,103677,150 North Riverside Plaza,Submitted,150 N RIVERSIDE PLAZA,60606,3.5,False,NEAR WEST SIDE,Office,1513050.0,2017.0,1,,79,60365957.0,1046980.6,0.0,0.0,,41.3,114.4,43.6,120.8,8677.5,5.8,41.88383779,-87.63851426,"(41.88383779, -87.63851426)",2021-103677,36,29,14914.0,784,22
2019,103679,300 South Riverside Plaza,Submitted,300 S Riverside Plz,60606,3.0,False,NEAR WEST SIDE,Office,1225724.0,1983.0,1,12847.0,69,75462658.1,,,,,61.6,172.4,60.8,,12554.3,10.2,41.877973,-87.638874,"(41.877973, -87.638874)",2019-103679,36,29,14914.0,786,48
2021,103681,Fordham Hall- ID# 103681,Submitted,6427-6455 N Sheridan Rd,60626,3.5,False,ROGERS PARK,Residence Hall/Dormitory,113750.0,1991.0,1,,54,2675113.1,10195780.6,0.0,0.0,,113.2,160.0,126.6,174.1,923.6,8.1,41.99972255,-87.66065332,"(41.99972255, -87.66065332)",2021-103681,5,10,21853.0,267,3
2018,103682,2019 - 4624 S Ellis,Submitted,4624 S. Ellis,60653,4.0,False,KENWOOD,Multifamily Housing,100332.0,1955.0,1,8273.0,100,917314.2,,,,,9.1,25.6,9.2,25.7,152.6,1.5,41.82021138,-87.61246867,"(41.82021138, -87.61246867)",2018-103682,10,4,4301.0,583,1
2021,103684,NMH Arkes Family Pavilion,Submitted,676 N St Clair St,60611,3.0,False,NEAR NORTH SIDE,Medical Office,675000.0,1980.0,1,,66,68905067.0,238235.3,0.0,0.0,,102.4,286.2,103.9,290.3,9854.1,14.6,41.894419,-87.622789,"(41.894419, -87.622789)",2021-103684,36,37,21182.0,158,22
2021,103685,One North State,Submitted,1 N State St,60602,nan,True,LOOP,Office,829068.0,1910.0,1,,,28647421.5,24042834.8,0.0,0.0,,63.6,127.2,66.5,130.2,5368.6,6.5,41.88238964,-87.62728409,"(41.88238964, -87.62728409)",2021-103685,36,38,14310.0,580,22
2021,103687,Sullivan Center,Submitted,1 S State St,60603,3.5,False,LOOP,Office,870368.0,1899.0,1,,80,20845958.6,33918906.7,0.0,0.0,,62.9,108.0,67.6,112.9,4779.0,5.5,41.88190243,-87.62775418,"(41.88190243, -87.62775418)",2021-103687,36,38,14311.0,367,22
2021,103689,Old Post Office,Submitted,404 W HARRISON ST,60607,4.0,False,NEAR WEST SIDE,Office,2462640.0,2018.0,1,,82,43990779.5,52410700.5,0.0,56373814.0,,62.0,93.2,61.4,92.9,12037.8,4.9,41.87665199,-87.63815929,"(41.87665199, -87.63815929)",2021-103689,26,29,14917.0,97,48
2021,103692,333 South Wabash,Submitted,333 S Wabash Ave,60604,3.0,False,LOOP,Office,1474508.0,1972.0,1,,67,52225334.4,57305196.1,0.0,0.0,,77.4,145.9,81.3,149.9,10502.9,7.4,41.87740181,-87.62564302,"(41.87740181, -87.62564302)",2021-103692,36,38,14912.0,367,48
2021,103696,111 South Wacker,Submitted,111 S Wacker,60606,3.5,False,LOOP,Office,1454157.0,2004.0,1,,71,69575286.2,0.0,0.0,0.0,,55.7,156.0,56.7,158.7,9937.2,8.0,41.880335,-87.636667,"(41.880335, -87.636667)",2021-103696,36,38,14914.0,92,48
2021,103698,22 West Washington,Submitted,22 W Washington St,60602,3.5,False,LOOP,Office,496607.0,2008.0,1,,80,48235546.4,0.0,0.0,0.0,,102.3,286.5,104.0,291.1,6889.3,14.6,41.88356258,-87.62879915,"(41.88356258, -87.62879915)",2021-103698,36,38,14310.0,92,22
2021,103699,George W Dunne Cook County Office Building,Submitted,69 W Washington St,60602,4.0,False,LOOP,Office,821861.0,1965.0,1,,85,21559227.0,24487399.3,0.0,0.0,,56.0,104.7,60.0,108.9,4379.9,5.3,41.88287346,-87.62989783,"(41.88287346, -87.62989783)",2021-103699,36,38,14310.0,92,22
2021,103705,The National,Submitted,125 S Clark St,60603,4.0,False,LOOP,Office,580000.0,1907.0,1,,83,13785408.1,32740272.3,0.0,10871135.7,,99.0,142.9,102.2,146.7,4280.8,7.4,41.879992,-87.630764,"(41.879992, -87.630764)",2021-103705,36,38,14311.0,92,22
2021,103711,Two North LaSalle,Submitted,2 N LaSalle St,60602,3.0,False,LOOP,Office,776691.0,1978.0,1,,67,32782270.8,0.0,0.0,0.0,,42.2,118.2,44.2,123.7,4682.2,6.0,41.8823134,-87.63279516,"(41.8823134, -87.63279516)",2021-103711,36,38,14310.0,92,22
2021,103712,Water Tower Place,Submitted,845 N Michigan Ave,60611,nan,True,NEAR NORTH SIDE,Mixed Use Property,2984641.0,1976.0,1,,,130671684.2,56856663.4,0.0,0.0,,72.7,164.9,74.7,168.7,21683.3,8.4,41.898304,-87.624041,"(41.898304, -87.624041)",2021-103712,11,37,21182.0,233,22
2020,103716,The Palmer House Hotel,Submitted Data,17 E Monroe St,60603,4.0,False,LOOP,Hotel,1749427.0,1925.0,3,,88,36891526.2,103199234.9,,,,82.0,124.1,84.8,127.1,11167.8,6.6,41.88032223,-87.62695184,"(41.88032223, -87.62695184)",2020-103716,36,38,14311.0,367,22
2021,103721,The Rookery Building,Submitted,209 S LaSalle St,60604,3.0,False,LOOP,Office,337879.0,1886.0,1,,69,17911645.4,0.0,0.0,0.0,,53.0,148.4,53.7,150.2,2558.3,7.6,41.87908523,-87.631822,"(41.87908523, -87.631822)",2021-103721,36,38,14912.0,92,22
2020,103727,,Submitted Data,5040 5060 N BROADWAY,60640,nan,True,UPTOWN,Multifamily Housing,436961.0,1965.0,1,,,10332764.6,9502196.3,,,,46.7,91.6,47.7,92.6,2117.3,5.0,41.97411618,-87.66026911,"(41.97411618, -87.66026911)",2020-103727,18,31,22616.0,633,37
2021,103731,900 W Fullerton,Submitted,900  W FULLERTON AVE,60614,4.0,False,LINCOLN PARK,Multifamily Housing,63753.0,2000.0,1,,72,839669.3,2817177.7,0.0,0.0,,69.7,101.1,73.9,104.1,269.6,5.1,41.92201051,-87.65461957,"(41.92201051, -87.65461957)",2021-103731,34,68,21190.0,797,16
2021,103733,International Tower,Submitted,8550 W Bryn Mawr Ave,60631,4.0,False,OHARE,Office,433339.0,1969.0,1,,72,12021004.9,19593529.9,0.0,0.0,,101.7,174.5,99.5,172.2,2757.6,8.9,41.981083,-87.840286,"(41.981083, -87.840286)",2021-103733,29,75,22243.0,64,34
2021,103738,Drexel Towers 4825,Submitted,4825  S DREXEL BLVD,60615,3.0,False,KENWOOD,Multifamily Housing,89000.0,1970.0,1,,62,1462770.5,7179126.8,0.0,0.0,,97.1,130.7,103.7,136.3,590.2,6.6,41.80224043,-87.60332678,"(41.80224043, -87.60332678)",2021-103738,33,8,21192.0,147,1
2021,103739,20 North Clark Street - 2821,Submitted,20 N Clark St,60602,3.5,False,LOOP,Office,445973.0,1981.0,1,,72,17945345.8,0.0,0.0,0.0,,40.2,112.7,42.4,118.6,2563.1,5.7,41.88230282,-87.63117675,"(41.88230282, -87.63117675)",2021-103739,36,38,14310.0,92,22
2021,103743,33 N. Dearborn,Submitted,33 N Dearborn St,60602,3.5,False,LOOP,Office,372137.0,1966.0,1,,79,7970817.6,12964338.9,0.0,7993883.9,,77.7,116.1,78.9,117.9,2248.3,6.0,41.88287054,-87.62903883,"(41.88287054, -87.62903883)",2021-103743,36,38,14310.0,92,22
2021,103745,900 North Michigan,Submitted,900 North Michigan,60611,nan,True,NEAR NORTH SIDE,Mixed Use Property,2731896.0,1989.0,1,,,137920137.0,34033643.0,0.0,0.0,,80.5,197.5,82.3,201.4,21506.3,10.1,41.89920885,-87.62650606,"(41.89920885, -87.62650606)",2021-103745,36,37,21182.0,104,22
2021,103748,8799,Submitted,710 N Fairbanks Ct,60611,2.0,False,NEAR NORTH SIDE,Laboratory,186610.0,1978.0,1,,,18014203.3,33723372.9,0.0,0.0,,277.2,460.0,286.8,470.1,4364.1,23.4,41.89531,-87.620363,"(41.89531, -87.620363)",2021-103748,36,37,21182.0,158,22
2021,103759,Headquarters,Submitted,547 W Jackson Blvd,60661,2.5,False,NEAR WEST SIDE,Office,347691.0,1922.0,1,,55,19688690.1,8172346.3,0.0,0.0,,80.1,183.2,82.0,183.5,3246.1,9.3,41.878003,-87.641471,"(41.878003, -87.641471)",2021-103759,36,29,4452.0,786,48
2021,103761,20 West Kinzie,Submitted,20 W Kinzie St,60654,4.0,False,NEAR NORTH SIDE,Office,393838.0,2000.0,1,,91,18650029.5,0.0,0.0,0.0,,47.4,132.6,48.2,135.0,2663.7,6.8,41.88927,-87.628761,"(41.88927, -87.628761)",2021-103761,36,37,4446.0,669,22
