DataYear,ID,PropertyName,ReportingStatus,Address,ZIPCode,ChicagoEnergyRating,ExemptFromChicagoEnergyRating,CommunityArea,PrimaryPropertyType,GrossFloorArea,YearBuilt,NumberOfBuildings,WaterUse,ENERGYSTARScore,ElectricityUse,FossilGasUse,DistrictSteamUse,DistrictChilledWaterUse,AllOtherFuelUse,SiteEUI,SourceEUI,WeatherNormalizedSiteEUI,WeatherNormalizedSourceEUI,TotalGHGEmissions,GHGIntensity,Latitude,Longitude,Location,Row_ID,Wards,CommunityAreas,ZipCodes,CensusTracts,HistoricalWards2003-2015
2022,175891,,Submitted Data,6730   SOUTH SHORE DR,60649,4.0,False,SOUTH SHORE,Multifamily Housing,172500.0,1962.0,1,,100,2069532.4,3384519.4,0.0,0.0,,36.4,62.3,36.4,62.3,452.4,3.0,41.7852002,-87.6115702,"(41.7852002, -87.6115702)",2022-175891,4,9,22260.0,331,53
2022,251245,3800 N. Lake Shore Drive,Submitted Data,3800 Lake Shore Dr,60613,3.5,False,LAKE VIEW,Multifamily Housing,249095.0,1927.0,2,,74,3345590.2,18702028.9,0.0,0.0,,88.5,116.4,94.1,121.1,1434.0,5.8,41.7689831,-87.585814,"(41.7689831, -87.585814)",2022-251245,33,39,22538.0,381,32
2022,256658,Midpointe Apartments,Submitted Data,4050 West 115th Street,nan,4.0,False,,Multifamily Housing,393938.0,1973.0,8,,75,6388293.5,20841006.3,0.0,0.0,,69.1,101.0,71.9,102.6,1948.4,4.9,41.68404416097816,-87.72196287522412,"(41.68404416097816, -87.72196287522412)",2022-256658,42,73,4447.0,264,33
2022,250062,RJ Quinn Academy,Submitted Data,558 W De Koven St,60607,2.0,False,NEAR WEST SIDE,Adult Education,66285.0,1961.0,1,,,2649529.2,3322169.7,0.0,0.0,,90.1,164.5,91.9,165.6,525.4,7.9,41.8691173077849,-87.64134962810887,"(41.869117307784904, -87.64134962810887)",2022-250062,26,29,14917.0,97,48
2022,101545,,Submitted Data,849 863 W BUENA AVE,60613,2.0,False,UPTOWN,Multifamily Housing,51163.0,1925.0,1,,50,541560.1,4310877.6,0.0,0.0,,94.8,118.1,101.2,123.8,300.3,5.9,41.95835278315766,-87.65180597369445,"(41.95835278315766, -87.65180597369445)",2022-101545,39,31,21186.0,577,37
2022,160438,155 North Wacker,Submitted Data,155 N Wacker Dr,60606,4.0,False,LOOP,Office,1484327.0,2009.0,1,,75,63482520.5,0.0,0.0,29929202.7,,66.4,145.8,64.4,144.9,9938.8,7.1,41.88461561705127,-87.63668235780031,"(41.88461561705127, -87.63668235780031)",2022-160438,36,38,14914.0,92,22
2022,157280,Noble Square Cooperative,Submitted Data,1165 N MILWAUKEE AVE,60642,2.5,False,WEST TOWN,Multifamily Housing,284850.0,1969.0,1,,59,5337441.6,22518851.5,0.0,0.0,,97.8,135.5,101.6,138.6,1899.1,6.7,41.90300503923503,-87.66570654445466,"(41.903005039235026, -87.66570654445466)",2022-157280,46,25,22620.0,484,41
2022,103871,,Submitted Data,111 S PEORIA ST,60607,4.0,False,NEAR WEST SIDE,Multifamily Housing,255100.0,2017.0,1,,96,4178418.8,6607850.3,0.0,0.0,,47.8,82.5,49.4,82.9,901.3,4.0,41.88008796259812,-87.64949931059303,"(41.88008796259812, -87.64949931059303)",2022-103871,46,29,14917.0,91,41
2022,256630,The Residences at 8 East Huron,Submitted Data,8 E Huron St,nan,1.0,False,,Multifamily Housing,196844.0,2017.0,1,,15,6025888.9,9583179.9,0.0,0.0,,91.0,157.1,91.8,156.1,1302.7,7.6,41.89499060703644,-87.62782919767419,"(41.89499060703644, -87.62782919767419)",2022-256630,36,37,21182.0,626,22
2022,113752,,Submitted Data,1540  N STATE PKWY,60610,4.0,False,NEAR NORTH SIDE,Multifamily Housing,105500.0,1970.0,1,,98,1336010.7,4965839.6,0.0,0.0,,59.7,84.9,62.6,86.7,439.7,4.2,41.910727236140296,-87.62901846282452,"(41.910727236140296, -87.62901846282452)",2022-113752,11,37,14926.0,100,22
2022,250145,180 N Wabash Ave,Submitted Data,180 N Wabash Ave,60601,1.0,False,LOOP,Office,162153.0,1919.0,1,,27,10711083.6,8663451.7,0.0,0.0,,119.5,241.1,121.0,240.2,1871.0,11.5,41.885353703982936,-87.62641328540737,"(41.885353703982936, -87.62641328540737)",2022-250145,36,38,14309.0,580,22
2022,251221,211 W Wacker Dr,Submitted Data,211 W Wacker Dr,60606,3.5,False,LOOP,Office,158063.0,1927.0,1,,72,5181368.0,7886636.6,0.0,0.0,,82.7,144.2,85.1,144.6,1101.4,7.0,41.88670787976228,-87.63431854507897,"(41.88670787976228, -87.63431854507897)",2022-251221,36,38,14914.0,92,22
2022,100179,Saint Anthony Hospital - Main Hospital,Submitted Data,2875 W 19th St,60623,0.0,False,SOUTH LAWNDALE,Hospital (General Medical & Surgical),450612.0,1897.0,1,,,15191302.2,0.0,0.0,0.0,,,,,,,,41.85540289350027,-87.69870754487314,"(41.85540289350027, -87.69870754487314)",2022-100179,1,32,21569.0,203,29
2022,254049,Farcroft by the Lake,Submitted Data,1337 W Fargo Ave,60626,4.0,False,Rogers Park,Multifamily Housing,115362.0,1928.0,1,,79,2708425.8,3944036.5,0.0,0.0,,57.7,101.6,58.4,101.1,566.2,4.9,42.0170650891458,-87.66474749058055,"(42.0170650891458, -87.66474749058055)",2022-254049,5,10,21853.0,357,3
2022,236345,The Private Residences at Ontario Place Condominiu,Submitted Data,10 E Ontario St,60611,1.0,False,NEAR NORTH SIDE,Multifamily Housing,690169.0,1983.0,1,,11,39802699.9,12723426.0,0.0,0.0,,107.0,254.2,108.6,257.6,5918.4,12.1,41.89338886697453,-87.62770240071154,"(41.89338886697453, -87.62770240071154)",2022-236345,36,37,21182.0,626,22
2022,254009,Maple Court Apartments,Submitted Data,1120 1126 E 47th St,60653,1.0,False,Kenwood,Multifamily Housing,50760.0,1915.0,1,,15,445867.4,6659899.7,0.0,0.0,,140.0,162.4,149.8,171.8,412.5,8.1,41.80973408310273,-87.59839106098786,"(41.80973408310273, -87.59839106098786)",2022-254009,10,5,4301.0,395,1
2022,243913,990 North Lake Shore Drive,Submitted Data,990 N Lake Shore Dr,60611,1.0,False,NEAR NORTH SIDE,Multifamily Housing,331127.0,1973.0,1,,16,12489242.8,10220816.8,0.0,0.0,,76.6,154.1,79.6,158.0,2187.9,7.4,41.900733268826365,-87.61985707754388,"(41.900733268826365, -87.61985707754388)",2022-243913,11,37,21182.0,105,22
2022,160299,,Submitted Data,111 W WACKER DR,60601,3.0,False,LOOP,Multifamily Housing,940002.0,2014.0,1,,41,30516051.4,18195799.7,0.0,0.0,,60.1,129.0,60.6,129.0,4985.9,6.2,41.886706842036986,-87.63140795865142,"(41.886706842036986, -87.63140795865142)",2022-160299,36,38,14309.0,92,22
2022,251687,Peirce Sch Of Intl Studies -CPS,Submitted Data,1423 W Bryn Mawr Ave,60660,1.0,False,EDGEWATER,K-12 School,141588.0,1915.0,4,,28,4758764.1,7158680.3,0.0,0.0,,84.2,147.2,86.3,149.5,1007.0,7.1,41.98342818917878,-87.66586537292214,"(41.98342818917878, -87.66586537292214)",2022-251687,16,76,4451.0,540,40
2022,171887,,Submitted Data,1824 N SPAULDING AVE,60647,4.0,False,LOGAN SQUARE,Multifamily Housing,65000.0,2015.0,1,,86,981628.0,3244725.2,0.0,0.0,,65.0,94.7,65.5,93.2,301.6,4.6,41.9144873110274,-87.7103519431192,"(41.9144873110274, -87.7103519431192)",2022-171887,41,23,22535.0,387,10
2022,175978,,Submitted Data,6700  S KEATING AVE,60629,4.0,False,WEST LAWN,Senior Living Community,120000.0,2017.0,1,,85,3469219.3,4911300.4,0.0,0.0,,69.8,123.9,71.6,125.8,717.8,6.0,41.771069588287695,-87.74052887602656,"(41.771069588287695, -87.74052887602656)",2022-175978,15,63,4300.0,318,23
2022,255740,The Van Buren,Submitted Data,808 W Van Buren,60607,1.0,False,NEAR WEST SIDE,Multifamily Housing,125766.0,2018.0,1,,22,4665641.8,7631923.3,0.0,0.0,,104.6,179.3,108.0,182.8,1019.9,8.7,41.876775163443966,-87.64761342827666,"(41.876775163443966, -87.64761342827666)",2022-255740,46,29,14917.0,91,41
2022,116752,Ike Sims Village,Submitted Data,3333  W MAYPOLE AVE,60624,2.0,False,EAST GARFIELD PARK,Multifamily Housing,91511.0,1981.0,1,,28,3783873.8,2080705.3,0.0,0.0,,75.4,164.3,76.7,167.1,608.9,7.8,41.88346519170685,-87.71003990906787,"(41.883465191706854, -87.71003990906787)",2022-116752,23,28,21572.0,176,11
2022,116336,LaSalle Private Residences,Submitted Data,1212 N LaSalle St,60610,3.0,False,NEAR NORTH SIDE,Multifamily Housing,471954.0,1986.0,1,,61,11662672.1,6851736.5,0.0,0.0,,50.4,108.4,50.4,107.5,1900.1,5.2,41.904296301251605,-87.63308211662499,"(41.904296301251605, -87.63308211662499)",2022-116336,11,37,14926.0,290,51
2022,101682,8750 West Bryn Mawr Ave - Triangle Plaza,Submitted Data,8750 W Bryn Mawr Ave,60631,4.0,False,OHARE,Office,1286868.0,1985.0,1,,86,31846235.2,186167.5,0.0,0.0,,41.7,116.2,42.3,118.0,4204.5,5.5,41.98106319707633,-87.84567441591551,"(41.98106319707633, -87.84567441591551)",2022-101682,29,75,22243.0,64,34
2022,101969,Chicago Temple Building,Submitted Data,77 W Washington,60602,2.5,False,LOOP,Office,238531.0,1924.0,1,,59,7981605.0,11794100.2,0.0,0.0,,82.9,145.6,85.8,147.4,1677.7,7.0,41.883100539501605,-87.63033121191829,"(41.883100539501605, -87.63033121191829)",2022-101969,36,38,14310.0,92,22
2022,238712,899 South Plymouth Court Condominium Association,Submitted Data,899 S Plymouth Ct,60605,1.5,False,LOOP,Multifamily Housing,263800.0,1980.0,1,,40,10805846.2,5789635.4,0.0,0.0,,62.9,137.7,64.3,140.4,1730.8,6.6,41.87057299287796,-87.62844790993732,"(41.87057299287796, -87.62844790993732)",2022-238712,10,38,14913.0,12,48
2022,125204,Reside on Morse,Submitted Data,1340  W MORSE AVE,60626,2.0,False,ROGERS PARK,Multifamily Housing,62088.0,1967.0,2,,46,1661671.1,5625168.7,0.0,0.0,,117.4,170.1,120.4,171.9,517.6,8.3,42.00802983930751,-87.66535497284883,"(42.00802983930751, -87.66535497284883)",2022-125204,5,10,21853.0,66,3
2022,159099,Sofitel Chicago Water Tower,Submitted Data,20 E Chestnut St,60611,1.0,False,NEAR NORTH SIDE,Hotel,377000.0,2002.0,1,,13,24261731.9,30739699.5,0.0,0.0,,145.9,265.8,146.1,261.1,4828.3,12.8,41.89844463667514,-87.62740563976503,"(41.898444636675144, -87.62740563976503)",2022-159099,11,37,21182.0,104,22
2022,166134,John G Shedd Aquarium,Submitted Data,1200 S Lake Shore Dr,60605,1.0,False,NEAR SOUTH SIDE,Other,452756.0,1929.0,1,,,56655688.0,32251318.8,0.0,0.0,,196.4,425.2,198.7,427.6,9640.3,21.3,41.86748422716416,-87.61915038338188,"(41.867484227164155, -87.61915038338188)",2022-166134,10,34,14913.0,374,48
2022,251334,Seton Hall,Submitted Data,2325 N Sheffield Ave,60614,2.0,False,LINCOLN PARK,College/University,50174.0,1989.0,1,,,2130637.1,3745124.1,0.0,0.0,,117.1,197.3,122.0,202.4,479.6,9.6,41.92432721066951,-87.65342424243978,"(41.92432721066951, -87.65342424243978)",2022-251334,34,68,21190.0,744,51
2022,160285,Long Grove House,Submitted Data,2001 S Michigan Ave,60616,3.0,False,NEAR SOUTH SIDE,Multifamily Housing,553115.0,1969.0,1,,65,8555232.4,39077568.2,0.0,0.0,,97.2,132.6,102.1,136.6,3202.4,6.5,41.8554319990211,-87.62372821557055,"(41.8554319990211, -87.62372821557055)",2022-160285,9,34,21194.0,374,48
2022,156942,Burton-Judson Courts,Submitted Data,1005 E 60th St,60637,3.0,False,WOODLAWN,Residence Hall/Dormitory,201402.0,1931.0,1,,68,2852269.0,0.0,14194821.6,0.0,,84.6,124.4,89.7,130.6,1318.2,6.5,41.78582054292253,-87.60093895755584,"(41.78582054292253, -87.60093895755584)",2022-156942,4,9,22260.0,427,53
2022,256408,,Submitted Data,320 E Superior Street,60611,1.0,False,NEAR NORTH SIDE,Laboratory,186803.0,1965.0,1,,,30657238.7,38345680.1,0.0,0.0,,369.4,675.1,364.8,656.6,6074.7,32.5,41.89592410823823,-87.61954552570175,"(41.895924108238226, -87.61954552570175)",2022-256408,11,37,21182.0,158,22
2022,251996,Prairie Point Condominium,Submitted Data,1600 S Prairie Ave,60616,1.5,False,NEAR SOUTH SIDE,Multifamily Housing,357000.0,2006.0,1,,39,7152087.6,18654526.1,0.0,0.0,,95.9,147.2,98.6,147.4,1991.5,7.4,41.86017040462029,-87.62097159169389,"(41.860170404620284, -87.62097159169389)",2022-251996,9,34,21194.0,374,48
2022,256890,,Submitted Data,455 E WATERSIDE DR,60601,4.0,False,,Multifamily Housing,681529.0,2021.0,1,,83,13321451.2,19583790.4,0.0,0.0,,64.3,113.0,65.7,112.4,2794.8,5.5,41.88683541770806,-87.61533228622845,"(41.88683541770806, -87.61533228622845)",2022-256890,36,38,14309.0,580,22
2022,251551,Murphy Elementary -CPS,Submitted Data,3539 W Grace St,60618,1.5,False,IRVING PARK,K-12 School,85287.0,1924.0,1,,35,1481019.6,7574559.8,0.0,0.0,,106.2,141.9,112.2,148.2,597.4,7.0,41.9500503419734,-87.7168294858019,"(41.950050341973395, -87.7168294858019)",2022-251551,12,16,21538.0,325,15
2022,243071,1620 S. Michigan Ave Condo Association,Submitted Data,1620 S Michigan Ave,60616,1.0,False,NEAR SOUTH SIDE,Multifamily Housing,306737.0,2006.0,1,,,6919342.2,16015400.4,0.0,0.0,,91.1,143.8,92.9,143.1,1762.0,7.0,41.85964085466748,-87.62412017840215,"(41.85964085466748, -87.62412017840215)",2022-243071,9,34,21194.0,374,48
2022,112437,,Submitted Data,415 421 W ALDINE AVE,60657,4.0,False,LAKE VIEW,Multifamily Housing,140000.0,1927.0,1,,83,1660138.6,9255186.9,0.0,0.0,,78.0,102.6,82.5,106.2,710.3,5.1,41.94217111768992,-87.64055913334448,"(41.942171117689924, -87.64055913334448)",2022-112437,25,57,4449.0,535,38
2022,101920,Wrigley Building,Submitted Data,410 N MICHIGAN AVE,60611,4.0,False,NEAR NORTH SIDE,Office,661275.0,1921.0,1,,86,21545659.2,17350480.5,0.0,0.0,,58.8,118.8,59.5,118.1,3759.4,5.7,41.8898747912625,-87.62425976144404,"(41.8898747912625, -87.62425976144404)",2022-101920,36,37,21182.0,626,22
2022,254567,Moment Chicago,Submitted Data,545 McClurg Ct,60611,3.0,False,Near North Side,Multifamily Housing,670539.0,2017.0,1,,61,22701195.6,10862295.4,0.0,0.0,,62.0,138.5,62.7,139.9,3567.0,6.6,41.89238949917251,-87.61756080338456,"(41.89238949917251, -87.61756080338456)",2022-254567,36,37,21182.0,534,22
2022,251281,40 E Oak St,Submitted Data,40 E Oak St,60611,2.0,False,NEAR NORTH SIDE,Multifamily Housing,154113.0,1928.0,1,,46,2813444.4,15262838.1,0.0,0.0,,117.3,155.1,124.4,160.6,1181.3,7.7,41.90088008552061,-87.62685888861459,"(41.90088008552061, -87.62685888861459)",2022-251281,36,37,21182.0,104,22
2022,159981,"7447 South Shore, LLC - South Shore Beach Apartments",Submitted Data,7447 S South Shore Dr,60649,1.5,False,SOUTH SHORE,Multifamily Housing,381983.0,1968.0,1,,33,7335612.2,28083262.3,0.0,0.0,,105.7,149.3,108.8,150.7,2457.8,7.3,41.761305471393655,-87.55770551531141,"(41.761305471393655, -87.55770551531141)",2022-159981,37,39,22538.0,421,43
2022,252297,Lyndale Place,Submitted Data,2575 W Lyndale,60647,4.0,False,LOGAN SQUARE,Multifamily Housing,83620.0,1924.0,1,,98,1182317.0,2569411.8,0.0,0.0,,44.9,71.9,46.4,73.5,292.2,3.5,41.92232920928405,-87.69222252675809,"(41.92232920928405, -87.69222252675809)",2022-252297,41,23,22535.0,323,24
2022,112760,,Submitted Data,2416 2458 W GREENLEAF AVE,60645,3.5,False,WEST RIDGE,Multifamily Housing,80000.0,1927.0,1,,57,464782.1,8415500.4,0.0,0.0,,111.0,126.7,116.9,133.0,508.2,6.4,42.00961493978809,-87.6906098692729,"(42.00961493978809, -87.6906098692729)",2022-112760,27,20,22528.0,42,42
2022,175421,,Submitted Data,7219  N SHERIDAN RD,60626,1.0,False,ROGERS PARK,Multifamily Housing,52998.0,1928.0,1,,24,775917.3,5289543.2,0.0,0.0,,114.4,145.8,117.7,147.8,383.2,7.2,42.01338119245121,-87.66359877311648,"(42.01338119245121, -87.66359877311648)",2022-175421,5,10,21853.0,357,3
2022,111959,Dickens Place Condominium Association,Submitted Data,2100  N RACINE AVE,60614,4.0,False,LINCOLN PARK,Multifamily Housing,87600.0,1900.0,1,,100,769940.2,1957608.0,0.0,0.0,,37.4,57.7,38.0,57.6,205.4,2.8,41.91993549831988,-87.6584284790678,"(41.91993549831988, -87.6584284790678)",2022-111959,11,68,21190.0,210,16
2022,251320,"Jewel Osco, 03376-Kinzie & Des Plaines",Submitted Data,370 N Desplaines St,60661,2.5,False,WEST TOWN,Supermarket/Grocery Store,65000.0,2008.0,1,,57,7513697.7,10313899.6,0.0,0.0,,274.3,490.3,281.2,494.1,1537.5,23.7,41.88891817356032,-87.64447797292972,"(41.88891817356032, -87.64447797292972)",2022-251320,36,25,4446.0,109,41
2022,250122,Swedish Covenant Hospital Campus,Submitted Data,5145 N California Ave,60625,2.0,False,LINCOLN SQUARE,Mixed Use Property,1397263.0,1918.0,10,,44,90173072.3,75038913.5,0.0,0.0,,206.6,414.4,204.7,412.3,15862.7,19.8,41.97533413581096,-87.69875687452328,"(41.97533413581096, -87.69875687452328)",2022-250122,24,6,21849.0,28,46
2022,101883,Omni Hotel,Submitted Data,676 N Michigan Ave,60611,1.0,False,NEAR NORTH SIDE,Hotel,440281.0,1990.0,1,,3,58729940.8,6049269.9,0.0,0.0,,147.1,387.9,147.1,387.7,8056.9,18.3,41.89482685257429,-87.62439615715573,"(41.89482685257429, -87.62439615715573)",2022-101883,36,37,21182.0,626,22
2022,251560,Hampton Fine & Performing Arts -CPS,Submitted Data,3434 W 77th St,60652,1.0,False,ASHBURN,K-12 School,98776.0,2000.0,1,,12,5147060.0,4097419.7,0.0,0.0,,93.6,189.5,95.7,189.6,895.6,9.1,41.75348432246293,-87.70875286894322,"(41.75348432246293, -87.70875286894322)",2022-251560,30,69,4300.0,498,6
2022,114120,,Submitted Data,1169 S PLYMOUTH CT,60605,2.5,False,LOOP,Multifamily Housing,138000.0,1978.0,1,,53,4426157.9,4356293.2,0.0,0.0,,73.2,141.4,74.8,141.9,814.4,6.8,41.868167969554285,-87.62838989438983,"(41.868167969554285, -87.62838989438983)",2022-114120,10,38,14913.0,12,48
2022,175813,,Submitted Data,4260  N BROADWAY ST,60613,4.0,False,UPTOWN,Multifamily Housing,137900.0,2007.0,1,,100,1036197.3,1881273.5,0.0,0.0,,23.3,39.0,24.3,40.0,236.4,1.9,41.95985963166279,-87.65409599507807,"(41.95985963166279, -87.65409599507807)",2022-175813,39,31,21186.0,577,37
2022,173733,,Submitted Data,2336  N COMMONWEALTH AVE,60614,4.0,False,LINCOLN PARK,Multifamily Housing,120755.0,1968.0,1,,97,1398343.3,3242878.0,0.0,0.0,,46.1,72.7,48.4,75.1,356.4,3.5,41.92490681063852,-87.63823447332803,"(41.92490681063852, -87.63823447332803)",2022-173733,34,68,21190.0,207,51
2022,175046,East WrigleyView Village Condominiums,Submitted Data,737  W CORNELIA AVE,60657,1.0,False,LAKE VIEW,Multifamily Housing,51030.0,1919.0,1,,16,897960.0,4946800.2,0.0,0.0,,114.5,151.1,119.7,155.3,381.0,7.5,41.94533592146789,-87.64845096271144,"(41.945335921467894, -87.64845096271144)",2022-175046,25,57,4449.0,730,38
2022,156609,,Submitted Data,1360 N ASHLAND AVE,60622,4.0,False,WEST TOWN,Wholesale Club/Supercenter,147776.0,2016.0,1,,83,3387661.8,1306072.9,0.0,0.0,,53.4,123.5,53.3,121.9,515.6,5.9,41.90679510984423,-87.66773167006288,"(41.90679510984423, -87.66773167006288)",2022-156609,41,25,21560.0,482,24
2022,250147,820 W Jackson Blvd,Submitted Data,820 W Jackson Blvd,60607,1.0,False,NEAR WEST SIDE,Office,186957.7,1915.0,1,,,13408061.5,0.0,0.0,0.0,,71.7,200.8,71.7,200.8,1766.0,9.4,41.878043475002826,-87.64818021093538,"(41.878043475002826, -87.64818021093538)",2022-250147,46,29,14917.0,91,41
2022,117948,Symphony of Chicago West,Submitted Data,5130  W JACKSON BLVD,60644,2.0,False,AUSTIN,Senior Living Community,139114.0,1980.0,1,,21,4499001.6,13219880.1,0.0,0.0,,160.5,239.8,164.3,240.7,1294.8,11.7,41.87677135996502,-87.75477136468453,"(41.87677135996502, -87.75477136468453)",2022-117948,23,26,22216.0,184,11
2022,175546,,Submitted Data,2236 2296 N LINCOLN PARK WEST AVE,60614,4.0,False,LINCOLN PARK,Multifamily Housing,94600.0,1910.0,1,,89,1718804.1,4312483.1,0.0,0.0,,63.8,98.7,65.7,99.5,455.4,4.8,41.923101692647975,-87.63663948599596,"(41.923101692647975, -87.63663948599596)",2022-175546,34,68,21190.0,207,51
2022,172765,,Submitted Data,820  S PARK TER,60605,3.0,False,LOOP,Multifamily Housing,157844.0,1979.0,1,,62,2609966.6,12149700.2,0.0,0.0,,93.5,127.1,99.1,133.0,989.1,6.3,41.871459802919055,-87.62972747620356,"(41.871459802919055, -87.62972747620356)",2022-172765,10,38,14913.0,12,48
2022,172759,,Submitted Data,161  W HARRISON ST,60605,4.0,False,LOOP,Multifamily Housing,198000.0,1995.0,1,,77,4090298.9,6575531.4,0.0,0.0,,63.5,109.3,63.7,108.2,888.0,5.3,41.87438111044396,-87.63280747758456,"(41.874381110443956, -87.63280747758456)",2022-172759,10,38,14913.0,12,48
2022,172607,,Submitted Data,1734 1740 N MARSHFIELD AVE,60622,4.0,False,WEST TOWN,Multifamily Housing,76478.0,1993.0,1,,96,732999.7,2731827.7,0.0,0.0,,48.9,69.4,49.7,69.4,241.6,3.4,41.9134840987878,-87.66913845416519,"(41.9134840987878, -87.66913845416519)",2022-172607,40,25,21560.0,437,24
2022,252112,Pete's Cermak,Submitted Data,2526 W Cermak Ave,60608,1.0,False,SOUTH LAWNDALE,Supermarket/Grocery Store,74000.0,2006.0,,,26,11664255.5,12227980.2,0.0,0.0,,322.9,614.9,326.5,613.4,2185.8,29.5,41.85210065324028,-87.68905111060724,"(41.85210065324028, -87.68905111060724)",2022-252112,23,32,14920.0,203,11
2022,101867,125 South Wacker,Submitted Data,125 S Wacker Dr,60606,3.0,False,LOOP,Office,641962.0,1974.0,1,,67,33422010.0,0.0,0.0,0.0,,52.1,145.8,52.9,148.2,4402.2,6.9,41.88001342713154,-87.63657238450709,"(41.88001342713154, -87.63657238450709)",2022-101867,36,38,14914.0,92,48
2022,159896,Regents Park,Submitted Data,5020 - 5050 S Lake Shore Dr,60615,2.0,False,KENWOOD,Multifamily Housing,1460101.0,1972.0,1,,42,30613092.0,109683594.1,0.0,0.0,,96.1,137.6,99.5,139.7,9858.0,6.8,41.803747257819744,-87.58220896761574,"(41.803747257819744, -87.58220896761574)",2022-159896,33,5,21192.0,400,1
2022,235438,,Submitted Data,5901 N SHERIDAN RD,60660,3.5,False,EDGEWATER,Multifamily Housing,287688.0,1966.0,1,,73,9307334.2,0.0,0.0,0.0,,38.4,107.4,38.9,108.9,1225.9,5.1,41.989255198913554,-87.65521256058591,"(41.989255198913554, -87.65521256058591)",2022-235438,16,76,4451.0,13,40
2022,251620,Seward Communication Arts Academy -CPS,Submitted Data,4600 S Hermitage Ave,60609,4.0,False,NEW CITY,K-12 School,98375.0,1894.0,3,,76,1207684.2,5191739.9,0.0,0.0,,65.1,89.8,68.2,93.1,434.8,4.4,41.810296318834936,-87.66880777819493,"(41.810296318834936, -87.66880777819493)",2022-251620,3,59,14924.0,738,53
2022,109549,,Submitted Data,1327 1337 W LUNT AVE,60626,1.5,False,ROGERS PARK,Multifamily Housing,59768.0,1925.0,1,,37,371745.0,4623566.4,0.0,0.0,,83.6,98.6,87.7,102.5,294.5,4.9,42.00903394067994,-87.6647682806523,"(42.00903394067994, -87.6647682806523)",2022-109549,5,10,21853.0,66,3
2022,101217,,Submitted Data,850  W EASTWOOD AVE,60640,4.0,False,UPTOWN,Multifamily Housing,244164.0,1992.0,1,,83,4322769.4,14938150.0,0.0,0.0,,78.9,113.8,82.0,115.6,1362.8,5.6,41.96652845322141,-87.65171856394346,"(41.96652845322141, -87.65171856394346)",2022-101217,39,31,22616.0,19,37
2022,251627,Edison Park Elementary -CPS,Submitted Data,6220 N Olcott Ave,60631,1.5,False,NORWOOD PARK,K-12 School,60475.0,1948.0,2,,39,1916414.6,2520659.8,0.0,0.0,,73.4,132.5,73.6,130.9,386.3,6.4,41.994228115372266,-87.81380813707689,"(41.994228115372266, -87.81380813707689)",2022-251627,29,36,22243.0,733,34
2022,104879,,Submitted Data,2600  N HAMPDEN CT,60614,3.5,False,LINCOLN PARK,Multifamily Housing,90000.0,2005.0,1,,79,2656906.6,0.0,0.0,0.0,,40.9,114.5,40.8,114.2,350.0,5.4,41.9292686363256,-87.64081059903047,"(41.929268636325595, -87.64081059903047)",2022-104879,34,68,21190.0,18,51
2022,175735,,Submitted Data,2021  S MORGAN ST,60608,4.0,False,LOWER WEST SIDE,Multifamily Housing,80397.0,2010.0,1,,95,1735135.1,1218628.2,0.0,0.0,,40.9,85.0,41.3,84.9,293.3,4.1,41.85461475854118,-87.65132209218405,"(41.85461475854118, -87.65132209218405)",2022-175735,26,33,14920.0,250,8
2022,101765,77 West Wacker Drive,Submitted Data,77 W Wacker Dr,60601,4.0,False,LOOP,Office,1223136.0,1992.0,1,,75,50799353.3,0.0,0.0,0.0,,42.9,120.0,42.8,119.8,6691.0,5.6,41.88670773797291,-87.6307945777937,"(41.88670773797291, -87.6307945777937)",2022-101765,36,38,14309.0,92,22
2022,114191,232 E Walton Condominium Association,Submitted Data,228 240 E WALTON ST,60611,4.0,False,NEAR NORTH SIDE,Multifamily Housing,105000.0,1920.0,1,,98,1166119.2,4521582.1,0.0,0.0,,54.2,76.3,56.3,77.7,393.8,3.8,41.900173269863615,-87.6208164727626,"(41.900173269863615, -87.6208164727626)",2022-114191,11,37,21182.0,105,22
2022,103716,The Palmer House Hotel,Submitted Data,17 E Monroe St,60603,3.5,False,LOOP,Hotel,1749427.0,1925.0,3,,71,52479090.9,131214698.9,-4360181.4,-1344840.0,,105.0,164.2,106.9,165.3,13521.3,8.0,41.88066457839605,-87.6270893644417,"(41.88066457839605, -87.6270893644417)",2022-103716,36,38,14311.0,367,22
2022,251920,Mayfair,Submitted Data,189 E Lake Shore Dr,60611,4.0,False,NEAR NORTH SIDE,Multifamily Housing,266340.0,1924.0,1,,94,5862166.8,5705893.5,0.0,0.0,,43.4,84.1,45.1,85.9,1075.2,4.0,41.90077286216828,-87.62225511808359,"(41.90077286216828, -87.62225511808359)",2022-251920,11,37,21182.0,105,22
2022,158236,Renaissance Chicago Downtown,Submitted Data,1 W Wacker Dr,60601,2.5,False,LOOP,Hotel,537323.0,1990.0,1,,52,23912831.2,37491199.7,0.0,0.0,,114.3,197.9,117.8,199.7,5141.0,9.6,41.88670422864661,-87.62805355978018,"(41.88670422864661, -87.62805355978018)",2022-158236,36,38,14309.0,92,22
2022,254008,Hyde Park Courtway,Submitted Data,4816 4828 S Dorchester Ave,60615,4.0,False,Kenwood,Multifamily Housing,69540.0,1920.0,1,,91,489215.5,3834162.1,0.0,0.0,,62.2,77.6,66.4,81.3,268.1,3.9,41.80733149328984,-87.59208394633718,"(41.807331493289844, -87.59208394633718)",2022-254008,10,5,21192.0,356,1
2022,257034,,Submitted Data,9101 S Euclid Ave,60617,3.5,False,,K-12 School,70379.0,1959.0,3,,77,839352.0,2890160.1,0.0,0.0,,53.0,76.5,54.0,77.6,264.1,3.8,41.729656448535366,-87.57660534157822,"(41.729656448535366, -87.57660534157822)",2022-257034,35,44,21202.0,492,9
2022,106025,,Submitted Data,640 644 N WABASH AVE,60611,3.0,False,NEAR NORTH SIDE,Hotel,63000.0,1980.0,1,,63,2780493.6,3408033.5,0.0,0.0,,98.2,180.4,102.2,185.5,547.2,8.7,41.89369130700822,-87.62692024021078,"(41.89369130700822, -87.62692024021078)",2022-106025,36,37,21182.0,626,22
2022,113933,,Submitted Data,6927 6939 S CRANDON AVE,60649,3.5,False,SOUTH SHORE,Multifamily Housing,111239.0,1927.0,1,,59,484011.7,11673930.8,0.0,0.0,,109.3,122.4,117.1,130.6,683.8,6.1,41.76904696814895,-87.5697026420039,"(41.76904696814895, -87.5697026420039)",2022-113933,33,39,22538.0,142,32
2022,250079,Ada S Dennison-McKlinley Apts,Submitted Data,661 E 69th St,60637,3.5,False,WOODLAWN,Multifamily Housing,83063.0,1968.0,1,,59,1740154.3,6427639.8,0.0,0.0,,98.3,139.9,104.2,146.1,570.6,6.9,41.769348399340565,-87.6083159080587,"(41.769348399340565, -87.6083159080587)",2022-250079,4,9,22260.0,348,31
2022,160450,SoNo East,Submitted Data,840 W Blackhawk St,60642,2.0,False,NEAR NORTH SIDE,Multifamily Housing,392548.0,2012.0,1,,48,10755232.1,14554866.7,0.0,0.0,,79.6,142.8,81.2,144.5,2189.7,6.9,41.90865641035451,-87.64984333909909,"(41.90865641035451, -87.64984333909909)",2022-160450,11,37,22620.0,108,51
2022,256545,The Hoxton,Submitted Data,200 N Green St,60607,2.0,False,Near West Side,Hotel,153000.0,2019.0,1,,46,7715879.2,14353637.3,0.0,0.0,,144.2,239.7,147.3,240.7,1778.7,11.6,41.88569919716336,-87.64878908937915,"(41.885699197163355, -87.64878908937915)",2022-256545,46,29,14917.0,63,41
2022,102286,Illinois Masonic Medical Office Center,Submitted Data,3000 N HALSTED ST,60657,4.0,False,LAKE VIEW,Medical Office,142955.0,1993.0,1,,97,5781242.7,0.0,3438813.5,0.0,,64.5,142.2,64.3,140.2,989.8,6.9,41.936448010797946,-87.64929075151166,"(41.936448010797946, -87.64929075151166)",2022-102286,25,57,4449.0,681,38
2022,133159,Lurie Children's Lincoln Park Outpatient Center - Deming,Submitted Data,467 W Deming Pl,60614,1.0,False,LINCOLN PARK,Mixed Use Property,80877.0,1972.0,1,,,8972948.0,8307700.0,0.0,0.0,,274.6,537.9,272.3,527.4,1623.1,25.8,41.9288792870752,-87.64136753582706,"(41.9288792870752, -87.64136753582706)",2022-133159,34,68,21190.0,18,51
2022,100438,Palmolive Building Condominium Association,Submitted Data,913 - 921 N Michigan Ave,60611,1.0,False,NEAR NORTH SIDE,Multifamily Housing,436505.0,1929.0,1,,9,21105151.6,29367050.0,0.0,0.0,,127.1,226.4,127.7,226.1,4339.7,10.9,41.89968227551929,-87.62399351358822,"(41.89968227551929, -87.62399351358822)",2022-100438,11,37,21182.0,233,22
2022,172641,Symphony of Morgan Park,Submitted Data,10935 S HALSTED ST,60628,2.0,False,ROSELAND,Senior Living Community,77713.0,1976.0,1,,30,2935198.5,8372390.0,0.0,0.0,,188.2,283.2,191.6,283.8,831.3,13.8,41.69494894627507,-87.64231340979583,"(41.69494894627507, -87.64231340979583)",2022-172641,22,45,21861.0,525,45
2022,250101,Margaret Day Blake Apartments,Submitted Data,2140 N Clark St,60614,2.5,False,LINCOLN PARK,Multifamily Housing,76384.0,1966.0,1,,59,1498905.1,5310969.9,0.0,0.0,,95.9,137.7,100.6,141.2,479.5,6.8,41.92122495817048,-87.63799765552446,"(41.921224958170484, -87.63799765552446)",2022-250101,34,68,21190.0,207,51
2022,159651,,Submitted Data,352 360 W WELLINGTON AVE,60657,3.5,False,LAKE VIEW,Multifamily Housing,158320.0,1960.0,1,,76,1935931.0,9895052.1,0.0,0.0,,81.3,108.6,86.3,112.6,780.6,5.4,41.9366992476402,-87.63906908161195,"(41.9366992476402, -87.63906908161195)",2022-159651,25,57,4449.0,683,38
2022,256607,The Edge on Broadway,Submitted Data,6149 N. Broadway,nan,3.0,False,,Multifamily Housing,91557.0,2020.0,1,,70,2342839.5,2571680.5,0.0,0.0,,63.3,119.2,63.2,118.5,445.2,5.7,41.99373429885819,-87.66023494381585,"(41.99373429885819, -87.66023494381585)",2022-256607,16,76,4451.0,46,40
2022,134280,,Submitted Data,2512  N BOSWORTH AVE,60614,4.0,False,LINCOLN PARK,Multifamily Housing,54000.0,1920.0,1,,92,656197.4,1979461.8,0.0,0.0,,48.8,72.5,49.2,71.4,191.6,3.5,41.92734532721824,-87.66716388269737,"(41.92734532721824, -87.66716388269737)",2022-134280,40,68,21190.0,770,16
2022,134776,University Club of Chicago,Submitted Data,76 E Monroe St,60603,1.0,False,LOOP,Hotel,144036.0,1907.0,1,,,13336595.5,26575349.5,0.0,0.0,,277.1,453.0,282.4,455.2,3277.6,22.8,41.88092403509479,-87.62493419985192,"(41.88092403509479, -87.62493419985192)",2022-134776,36,38,14311.0,367,22
2022,102125,,Submitted Data,259 E Erie St,60611,4.0,False,NEAR NORTH SIDE,Medical Office,975524.0,2014.0,1,,75,46719793.2,43974039.3,0.0,0.0,,131.1,255.8,132.0,255.8,8489.3,12.3,41.89408538066317,-87.62040431002175,"(41.894085380663164, -87.62040431002175)",2022-102125,36,37,21182.0,158,22
2022,159733,,Submitted Data,4827 N SHERIDAN RD,60640,4.0,False,UPTOWN,Multifamily Housing,189225.0,1967.0,1,,67,2887086.2,12291480.3,0.0,0.0,,92.5,128.0,97.5,132.5,1033.1,6.3,41.96998686893952,-87.65469603821012,"(41.96998686893952, -87.65469603821012)",2022-159733,39,31,22616.0,635,40
2022,251690,Chicago Military Academy-Bronzeville -CPS,Submitted Data,3533 S Giles Ave,60653,3.0,False,DOUGLAS,K-12 School,121900.0,1915.0,2,,70,2530294.9,5838440.0,0.0,0.0,,68.7,108.4,70.4,109.4,643.4,5.3,41.830186170515454,-87.61916879832785,"(41.830186170515454, -87.61916879832785)",2022-251690,9,1,4301.0,222,48
2022,251282,1100 N Dearborn St,Submitted Data,1100 N Dearborn St,60610,2.0,False,NEAR NORTH SIDE,Multifamily Housing,179090.0,1930.0,1,,41,3217548.9,17576649.2,0.0,0.0,,116.1,153.4,123.2,159.2,1357.4,7.6,41.90192583637703,-87.63007339557312,"(41.901925836377025, -87.63007339557312)",2022-251282,11,37,14926.0,310,22
2022,114866,,Submitted Data,4940  S EASTEND AVE,60615,3.5,False,KENWOOD,Multifamily Housing,146840.0,1928.0,1,,77,1579829.5,10590270.0,0.0,0.0,,82.9,105.9,88.2,110.8,770.6,5.2,41.804923176685726,-87.58562455528525,"(41.804923176685726, -87.58562455528525)",2022-114866,33,5,21192.0,400,1
2022,251865,"Prieto, Dr Jorge Elementary -CPS",Submitted Data,2231 N Central Ave,60639,3.5,False,BELMONT CRAGIN,K-12 School,115458.0,2009.0,2,,71,3103848.7,2290640.0,0.0,0.0,,46.7,96.1,47.5,96.9,530.5,4.6,41.92131716931634,-87.76574379790944,"(41.92131716931634, -87.76574379790944)",2022-251865,44,19,22615.0,307,4
2022,251518,"Pulaski Fine Arts Academy, Casimir -CPS",Submitted Data,2230 W Mclean Ave,60647,1.0,False,LOGAN SQUARE,K-12 School,103904.0,1949.0,2,,22,4268961.2,4701870.2,0.0,0.0,,86.3,162.6,90.4,168.5,812.0,7.8,41.91851374402591,-87.6838006106913,"(41.91851374402591, -87.6838006106913)",2022-251518,40,23,22535.0,324,16
2022,131155,,Submitted Data,217 221 N JEFFERSON ST,60661,1.0,False,NEAR WEST SIDE,Office,58044.0,1938.0,1,,24,4889277.8,599697.0,0.0,0.0,,94.6,246.7,94.4,246.5,675.8,11.6,41.88629366786716,-87.642643920642,"(41.88629366786716, -87.642643920642)",2022-131155,36,29,4452.0,784,22
2022,251393,Waters Fine Arts -CPS,Submitted Data,4540 N Campbell Ave,60625,2.0,False,LINCOLN SQUARE,K-12 School,93947.0,1911.0,3,,43,1846919.0,5871990.1,0.0,0.0,,82.2,120.7,85.0,123.7,555.2,5.9,41.96434835444591,-87.69136881312389,"(41.96434835444591, -87.69136881312389)",2022-251393,18,6,21849.0,621,13
2022,256555,,Submitted Data,2350 N Lincoln Ave,60614,1.0,False,Lincoln Park,Office,57566.0,2019.0,1,,26,4915169.9,2756862.0,0.0,0.0,,133.3,289.4,134.9,291.0,793.8,13.8,41.92469909990273,-87.64792902485,"(41.92469909990273, -87.64792902485)",2022-256555,34,68,21190.0,798,51
2022,113485,1366 Dearborn Condominium,Submitted Data,1366  N DEARBORN ST,60610,4.0,False,NEAR NORTH SIDE,Multifamily Housing,77280.0,1923.0,1,,66,1068490.7,5567486.5,0.0,0.0,,85.9,114.4,89.5,117.2,436.5,5.6,41.90763271960614,-87.63024615643657,"(41.90763271960614, -87.63024615643657)",2022-113485,11,37,14926.0,17,22
2022,102079,East Bank Club,Submitted Data,500 N Kingsbury St,60654,1.0,False,NEAR NORTH SIDE,Fitness Center/Health Club/Gym,384409.0,1980.0,1,,,32008405.0,33170497.9,0.0,0.0,,215.3,411.0,215.5,408.3,5977.8,19.7,41.89068430238799,-87.63939528336996,"(41.89068430238799, -87.63939528336996)",2022-102079,36,37,4446.0,652,22
2022,101789,200 W Madison,Submitted Data,200 W Madison,60606,3.0,False,LOOP,Office,1026496.0,1982.0,1,,66,48108398.4,0.0,0.0,0.0,,48.0,134.5,48.9,136.9,6336.6,6.3,41.88205498997484,-87.63389990116276,"(41.88205498997484, -87.63389990116276)",2022-101789,36,38,14914.0,92,22
2022,116215,,Submitted Data,1745  N KEYSTONE AVE,60639,2.0,False,HUMBOLDT PARK,Multifamily Housing,102457.0,1983.0,1,,45,4117950.4,3005115.1,0.0,0.0,,69.5,143.3,70.4,144.3,702.0,6.9,41.91299036228414,-87.72750390553908,"(41.91299036228414, -87.72750390553908)",2022-116215,49,24,22615.0,285,27
2022,251399,Park Manor Elementary -CPS,Submitted Data,7037 S Rhodes Ave,60637,3.0,False,GREATER GRAND CROSSING,K-12 School,62706.0,1913.0,1,,41,1560846.7,3750579.7,0.0,0.0,,84.7,132.5,87.5,135.4,404.8,6.5,41.76648583636912,-87.61150917051216,"(41.766485836369114, -87.61150917051216)",2022-251399,32,67,21546.0,480,31
2022,254379,City Hyde Park,Submitted Data,5105 S HARPER AVE,60615,4.0,False,Hyde Park,Multifamily Housing,613970.0,2015.0,1,,87,10146864.3,13664952.1,0.0,0.0,,64.7,116.2,65.9,116.9,2062.3,5.6,41.80226056986326,-87.58900434757135,"(41.80226056986326, -87.58900434757135)",2022-254379,10,8,21192.0,405,1
2022,251754,Phillip Murray Elementary Academy -CPS,Submitted Data,5335 S Kenwood Ave,60615,1.0,False,HYDE PARK,K-12 School,73984.0,1954.0,3,,15,2970118.6,4798959.9,0.0,0.0,,105.0,180.5,106.3,179.6,646.1,8.7,41.79852500652537,-87.59330351652744,"(41.79852500652537, -87.59330351652744)",2022-251754,10,8,21192.0,499,1
2022,159661,,Submitted Data,3101-3121 N Sheridan Rd,60657,1.0,False,LAKE VIEW,Multifamily Housing,205906.0,2000.0,1,,6,7846941.5,22866900.1,0.0,0.0,,149.2,223.3,157.1,229.7,2248.1,10.9,41.93778436615212,-87.63932266960995,"(41.937784366152115, -87.63932266960995)",2022-159661,25,57,4449.0,683,38
2022,160099,The Peninsula Chicago,Submitted Data,108 E Superior St,60611,1.0,False,NEAR NORTH SIDE,Hotel,410081.0,2000.0,1,,8,42031178.0,18827700.0,0.0,0.0,,148.4,335.2,148.5,333.8,6536.1,15.9,41.89583963820686,-87.62498814131581,"(41.89583963820686, -87.62498814131581)",2022-160099,36,37,21182.0,626,22
2022,110854,,Submitted Data,845  N KINGSBURY,60610,1.0,False,NEAR NORTH SIDE,Multifamily Housing,121592.0,2007.0,1,,8,3386329.1,8819741.9,0.0,0.0,,140.5,215.7,141.9,213.1,914.5,10.5,41.89791697400784,-87.64313291918586,"(41.89791697400784, -87.64313291918586)",2022-110854,46,37,14926.0,108,41
2022,252258,Roosevelt Square II,Submitted Data,1222 W Roosevelt Rd,60608,2.0,False,NEAR WEST SIDE,Multifamily Housing,173645.0,2005.0,1,,44,6236684.1,7131042.2,0.0,0.0,,77.0,143.7,78.4,143.3,1200.2,6.9,41.86709034875197,-87.6576733813155,"(41.86709034875197, -87.6576733813155)",2022-252258,23,29,14917.0,759,48
2022,160211,Hyatt Chicago Magnificent Mile,Submitted Data,633 N St Clair St,60611,4.0,False,NEAR NORTH SIDE,Office,632163.0,1991.0,1,,88,23351731.5,14936.4,0.0,0.0,,37.0,103.5,36.4,101.9,3076.5,4.9,41.89347535770077,-87.6225746735784,"(41.89347535770077, -87.6225746735784)",2022-160211,36,37,21182.0,158,22
2022,250052,Steinmetz Academic Center HS -CPS,Submitted Data,3030 N Mobile Ave,60634,3.5,False,BELMONT CRAGIN,K-12 School,398320.0,1934.0,3,,78,6655013.6,18493979.8,0.0,0.0,,63.1,95.5,65.1,97.6,1858.9,4.7,41.93563171170667,-87.78355193935316,"(41.93563171170667, -87.78355193935316)",2022-250052,44,19,22254.0,81,39
2022,251379,IBEW Local 134 Union Hall (expected 2016),Submitted Data,2722 S King Dr,60616,0.0,False,DOUGLAS,,130000.0,,,,,,,,,,,,,,,,41.84379445076125,-87.61776767805219,"(41.84379445076125, -87.61776767805219)",2022-251379,10,1,21194.0,191,1
2022,175727,130 S Jefferson St,Submitted Data,130 S Jefferson St,60661,2.0,False,NEAR WEST SIDE,Office,78790.7,1893.0,1,,,3161373.1,3460446.0,0.0,0.0,,84.0,158.5,85.3,156.3,600.2,7.6,41.879620863966615,-87.64273493564174,"(41.879620863966615, -87.64273493564174)",2022-175727,36,29,4452.0,786,48
2022,104250,,Submitted Data,544  W MELROSE ST,60657,2.0,False,LAKE VIEW,Multifamily Housing,54089.0,1967.0,1,,43,968135.1,3629269.5,0.0,0.0,,90.9,128.9,94.4,130.4,320.3,6.3,41.94125819643195,-87.64369884789778,"(41.94125819643195, -87.64369884789778)",2022-104250,25,57,4449.0,169,38
2022,144572,,Submitted Data,5301 5331 S KIMBARK AVE,60615,1.5,False,HYDE PARK,Multifamily Housing,59904.0,1960.0,1,,39,109892.5,6399882.0,0.0,0.0,,108.7,117.3,117.7,126.8,354.4,5.9,41.79940180871292,-87.59487727868954,"(41.79940180871292, -87.59487727868954)",2022-144572,10,8,21192.0,499,1
2022,101940,Mallers Building LLC,Submitted Data,5 S Wabash Ave,60603,nan,True,LOOP,Enclosed Mall,314262.0,1912.0,1,,,12947935.0,12839730.1,0.0,0.0,,82.1,158.3,80.9,155.1,2387.4,7.6,41.88192156256051,-87.62606305984501,"(41.88192156256051, -87.62606305984501)",2022-101940,36,38,14311.0,367,22
2022,172613,,Submitted Data,2720 2730 N Greenview Ave,60614,4.0,False,LINCOLN PARK,Multifamily Housing,64000.0,1986.0,1,,100,605719.2,1115773.8,0.0,0.0,,31.9,53.1,31.2,51.3,139.0,2.6,41.93133368277255,-87.66609193616192,"(41.93133368277255, -87.66609193616192)",2022-172613,40,68,21190.0,770,16
2022,159276,"Foxboro Properties, LLC",Submitted Data,6201 S Emerald Dr,60621,2.0,False,ENGLEWOOD,Other - Public Services,80000.0,1985.0,1,,,3952965.6,1553849.9,0.0,0.0,,68.8,158.7,68.5,156.4,603.2,7.5,41.78166673590872,-87.64473024375266,"(41.781666735908715, -87.64473024375266)",2022-159276,2,66,21559.0,22,19
2022,159999,Lake Terrace Condominiums,Submitted Data,7337 S SOUTH SHORE DR,60649,3.0,False,SOUTH SHORE,Multifamily Housing,308690.0,1958.0,1,,47,6002221.8,24721062.4,0.0,0.0,,112.5,156.6,117.7,161.1,2103.6,7.7,41.76323502386814,-87.55961668246357,"(41.76323502386814, -87.55961668246357)",2022-159999,37,39,22538.0,421,43
2022,117188,Ruth Shriman House,Submitted Data,4040  N SHERIDAN RD,60613,3.5,False,UPTOWN,Multifamily Housing,67988.0,1999.0,1,,79,755775.1,5127229.9,0.0,0.0,,86.5,110.3,90.1,114.2,371.9,5.5,41.95568501727633,-87.65472512810643,"(41.95568501727633, -87.65472512810643)",2022-117188,39,31,21186.0,577,37
2022,253967,Twenty N. State Condominium Association,Submitted Data,20 N State St,60602,2.5,False,Loop,Multifamily Housing,211608.0,1930.0,1,,53,8114118.8,8041686.5,0.0,0.0,,76.3,147.3,78.7,149.7,1495.9,7.1,41.88249264463549,-87.62799580639097,"(41.882492644635484, -87.62799580639097)",2022-253967,36,38,14310.0,92,22
2022,222943,University Park Condominium Association,Submitted Data,1451 E 55th St,60615,3.0,False,HYDE PARK,Multifamily Housing,579783.0,1961.0,2,,62,4921634.3,52357928.4,0.0,0.0,,106.3,127.6,114.1,135.8,3429.2,6.4,41.79540241485012,-87.58957983449767,"(41.795402414850116, -87.58957983449767)",2022-222943,33,8,21192.0,500,32
2022,256880,,Submitted Data,23 W CHICAGO AVE,60654,3.5,False,,Multifamily Housing,993583.0,2021.0,2,,77,12574637.9,61167040.6,0.0,0.0,,74.2,100.1,76.1,101.1,4905.1,4.9,41.89655372407749,-87.62919269256527,"(41.89655372407749, -87.62919269256527)",2022-256880,11,37,4446.0,669,22
2022,242148,(IL337)- Museum Park Place,Submitted Data,1841 S Calumet Ave,60616,2.5,False,NEAR SOUTH SIDE,Multifamily Housing,407616.0,2006.0,1,,54,9847758.9,17065212.0,0.0,0.0,,89.4,151.1,92.5,153.0,2203.5,7.3,41.8567991585422,-87.61898739327104,"(41.856799158542195, -87.61898739327104)",2022-242148,9,34,21194.0,374,48
2022,250107,Mayor Robert H Lawrence Apts,Submitted Data,655 W 65th St,60621,4.0,False,ENGLEWOOD,Multifamily Housing,158732.0,1967.0,1,,85,3027316.4,7506830.2,0.0,0.0,,66.4,103.1,69.7,106.6,797.5,5.0,41.776038107710136,-87.64186306247757,"(41.776038107710136, -87.64186306247757)",2022-250107,4,66,21559.0,435,53
2022,239994,Park 1500 Lofts,Submitted Data,1500 W Monroe St,60607,4.0,False,NEAR WEST SIDE,Multifamily Housing,516812.0,2004.0,2,,92,9012557.0,11456931.3,0.0,0.0,,52.9,96.3,53.4,95.3,1795.6,4.6,41.8803167405322,-87.66451033949646,"(41.8803167405322, -87.66451033949646)",2022-239994,23,29,14917.0,91,48
2022,251567,Pershing West -CPS,Submitted Data,3200 S Calumet Ave,60616,2.0,False,DOUGLAS,K-12 School,128716.0,1924.0,2,,49,2226418.7,9086849.6,0.0,0.0,,87.9,122.6,93.1,128.0,775.9,6.0,41.83649004697288,-87.61837372400701,"(41.83649004697288, -87.61837372400701)",2022-251567,10,1,21194.0,190,48
2022,251909,"Garvey Elementary, John W -CPS",Submitted Data,5225 N Oak Park Ave,60656,1.0,False,NORWOOD PARK,K-12 School,79665.0,1936.0,3,,15,3162709.2,4763399.7,0.0,0.0,,99.5,173.9,101.9,174.5,669.6,8.4,41.9763526249536,-87.79619832113984,"(41.9763526249536, -87.79619832113984)",2022-251909,29,36,4448.0,699,34
2022,101943,303 W Madison,Submitted Data,303 W Madison St,60606,3.5,False,LOOP,Office,353439.0,1987.0,1,,79,17533064.2,0.0,0.0,0.0,,50.8,142.1,51.4,143.8,2309.4,6.7,41.881822493770215,-87.6354365710274,"(41.881822493770215, -87.6354365710274)",2022-101943,36,38,14914.0,92,48
2022,256885,,Submitted Data,740 N ABERDEEN ST,60642,1.0,False,,Multifamily Housing,220601.0,2020.0,1,,23,8683365.7,7124466.1,0.0,0.0,,71.7,144.1,73.0,145.6,1522.1,6.9,41.895331824200014,-87.6552398396278,"(41.895331824200014, -87.6552398396278)",2022-256885,46,25,22620.0,522,41
2022,254977,Whole Foods,Submitted Data,3201 N ASHLAND AVE,60657,1.5,False,Lake View,Supermarket/Grocery Store,82147.0,2017.0,1,,37,17481787.3,7335000.0,0.0,0.0,,302.1,689.6,305.6,693.3,2692.2,32.8,41.93974461573451,-87.6685161010639,"(41.93974461573451, -87.6685161010639)",2022-254977,25,57,4449.0,678,38
2022,130442,,Submitted Data,210 N GREEN ST,60607,4.0,False,NEAR WEST SIDE,Office,92741.0,1893.0,1,,93,3290469.8,1741300.2,0.0,0.0,,54.3,119.1,55.8,120.7,525.9,5.7,41.886019332711655,-87.64879882847895,"(41.886019332711655, -87.64879882847895)",2022-130442,46,29,14917.0,63,41
2022,119676,"Home Depot, #1974 Cicero & Armitage",Submitted Data,1919 N Cicero Ave,60639,2.0,False,BELMONT CRAGIN,Retail Store,118221.0,2003.0,1,,47,4381682.8,8507308.8,0.0,0.0,,109.0,179.3,113.4,181.5,1029.0,8.7,41.91571014555266,-87.74590775451382,"(41.91571014555266, -87.74590775451382)",2022-119676,44,19,22615.0,289,7
2022,254989,Depaul University Holtschneider Performance Center,Submitted Data,2330 N HALSTED ST,60614,2.0,False,Lincoln Park,Performing Arts,185000.0,2018.0,1,,,6373579.8,13867437.8,0.0,0.0,,109.4,175.2,111.3,177.1,1576.1,8.5,41.92456760597094,-87.64887518194728,"(41.92456760597094, -87.64887518194728)",2022-254989,34,68,21190.0,744,51
2022,158402,W CHICAGO - CITY CENTER,Submitted Data,172 W Adams St,60603,1.0,False,LOOP,Hotel,243373.0,2009.0,1,,13,15170851.2,26330119.1,0.0,0.0,,170.5,288.1,175.3,290.6,3396.7,14.0,41.87950365016199,-87.63296974156731,"(41.879503650161986, -87.63296974156731)",2022-158402,36,38,14311.0,92,22
2022,160046,,Submitted Data,444 W Lake St,60606,4.0,False,NEAR WEST SIDE,Office,1339945.0,2016.0,1,,82,55258026.1,3687341.7,0.0,0.0,,47.6,128.0,48.0,129.3,7474.1,6.0,41.88582970383457,-87.63980643561894,"(41.88582970383457, -87.63980643561894)",2022-160046,36,29,14914.0,784,22
2022,256263,Fulton West,Submitted Data,1330 W. Fulton,60607,3.5,False,NEAR WEST SIDE,Office,555948.0,2017.0,1,,74,13498633.6,5133918.9,0.0,0.0,,60.5,140.2,60.5,140.2,2050.6,6.7,41.88673894981951,-87.66015770724567,"(41.88673894981951, -87.66015770724567)",2022-256263,46,29,14917.0,63,41
2022,250092,Judge Harry M. Fisher Apartments,Submitted Data,5821 N Broadway St,60660,3.5,False,EDGEWATER,Multifamily Housing,173733.0,1964.0,1,,78,3627255.1,8241230.0,0.0,0.0,,68.3,108.3,70.5,110.1,915.5,5.3,41.98765562647958,-87.66004572780321,"(41.98765562647958, -87.66004572780321)",2022-250092,16,76,4451.0,13,40
2022,254225,Ray and Joan Kroc Corps Community Center,Submitted Data,1250 W 119th St,60643,1.0,False,West Pullman,Fitness Center/Health Club/Gym,158483.0,2012.0,1,,,8359539.2,15617716.0,0.0,0.0,,151.3,251.2,154.9,252.2,1999.2,12.6,41.67776039309511,-87.65366213755682,"(41.677760393095106, -87.65366213755682)",2022-254225,22,50,22212.0,642,45
2022,252040,Kersten Physics Teaching Center,Submitted Data,5720 S Ellis Ave,60637,2.0,False,HYDE PARK,College/University,59287.0,1985.0,1,,,1505829.3,0.0,5002513.7,1090872.0,,128.2,189.4,126.3,188.0,588.0,9.9,41.79075786006069,-87.6014358637859,"(41.790757860060694, -87.6014358637859)",2022-252040,33,8,22260.0,154,32
2022,240338,Lakeside on the Park Condominium,Submitted Data,1250 S INDIANA AVE,60605,4.0,False,NEAR SOUTH SIDE,Multifamily Housing,267040.0,2004.0,1,,74,4782743.8,10302065.8,0.0,0.0,,72.7,116.7,74.6,118.7,1177.1,5.7,41.86609117936001,-87.62266724496163,"(41.86609117936001, -87.62266724496163)",2022-240338,9,34,14913.0,374,48
2022,251677,Darwin -CPS,Submitted Data,3116 W Belden Ave,60647,2.5,False,LOGAN SQUARE,K-12 School,121241.0,1900.0,3,,51,3638277.0,4203819.7,0.0,0.0,,64.7,120.4,67.4,123.3,702.5,5.8,41.92334997667189,-87.70543098761328,"(41.923349976671894, -87.70543098761328)",2022-251677,40,23,22535.0,371,10
2022,172679,Cook Brothers,Submitted Data,1740 N Kostner Ave,60639,1.5,False,HUMBOLDT PARK,Retail Store,384492.0,1977.0,1,,33,5214241.3,5848204.4,0.0,0.0,,102.7,192.5,103.2,189.7,997.4,9.3,41.91276950189482,-87.7363483567106,"(41.91276950189482, -87.7363483567106)",2022-172679,44,24,22615.0,285,7
2022,119885,,Submitted Data,1050  W 79TH ST,60620,3.0,False,AUBURN GRESHAM,Senior Living Community,60500.0,2005.0,1,,47,2355133.0,2446700.0,0.0,0.0,,79.4,151.5,81.5,152.0,440.2,7.3,41.75064861933454,-87.65092232062139,"(41.75064861933454, -87.65092232062139)",2022-119885,31,70,21554.0,487,17
2022,251388,Greeley Elementary -CPS,Submitted Data,832 W Sheridan Rd,60613,1.0,False,LAKE VIEW,K-12 School,60718.0,1978.0,1,,10,4201854.3,28800.0,0.0,0.0,,69.7,194.3,70.6,196.8,555.0,9.1,41.95283701350835,-87.65097549411013,"(41.95283701350835, -87.65097549411013)",2022-251388,39,57,21186.0,83,37
2022,254409,Haberdasher Square Lofts,Submitted Data,728 W Jackson Blvd,60661,3.5,False,NEAR WEST SIDE,Multifamily Housing,427614.0,1927.0,2,,72,8706592.5,18382654.3,0.0,0.0,,64.4,103.8,65.5,103.7,2123.2,5.0,41.878080925593714,-87.64529984955941,"(41.878080925593714, -87.64529984955941)",2022-254409,36,29,4452.0,786,48
2022,101950,332 Property LLC,Submitted Data,332 S Michigan Ave,60604,3.5,False,LOOP,Office,529401.0,1910.0,1,,71,14712241.2,29573324.1,0.0,0.0,,83.7,136.5,87.2,138.2,3508.6,6.6,41.87748017697733,-87.62444658849093,"(41.87748017697733, -87.62444658849093)",2022-101950,36,38,14912.0,367,48
2022,254997,Linkt Apartments,Submitted Data,830 N MILWAUKEE AVE,60642,4.0,False,West Town,Multifamily Housing,63568.0,2017.0,1,,91,1463305.6,1299531.6,0.0,0.0,,51.1,101.0,51.3,100.3,261.8,4.8,41.89691823704051,-87.65668624184336,"(41.89691823704051, -87.65668624184336)",2022-254997,46,25,22620.0,109,41
2022,172610,"Riverpoint Owner, LLC",Submitted Data,1730 W Fullerton Ave,60614,2.0,False,LINCOLN PARK,Strip Mall,211025.0,1998.0,1,,,16369554.9,8713808.7,0.0,0.0,,118.9,260.6,118.7,258.2,2618.9,12.4,41.92521232759425,-87.67192542513618,"(41.92521232759425, -87.67192542513618)",2022-172610,40,68,21190.0,743,16
2022,242554,,Submitted Data,3001 S MICHIGAN AVE,60616,2.0,False,DOUGLAS,Multifamily Housing,293042.0,1964.0,1,,46,3704062.5,18716907.4,0.0,0.0,,107.8,144.3,112.1,148.0,1482.0,7.1,41.839544942931575,-87.62308969921595,"(41.839544942931575, -87.62308969921595)",2022-242554,9,1,21194.0,191,48
2022,157320,,Submitted Data,24  S MORGAN ST,60607,2.0,False,NEAR WEST SIDE,Multifamily Housing,129844.0,2008.0,1,,50,3159480.9,5460616.8,0.0,0.0,,66.4,112.3,67.4,111.5,706.2,5.4,41.88098164434496,-87.65215509407778,"(41.88098164434496, -87.65215509407778)",2022-157320,26,29,14917.0,91,48
2022,175523,222 West Hubbard Street,Submitted Data,222 W Hubbard St,60654,3.0,False,NEAR NORTH SIDE,Office,66095.0,1905.0,1,,61,2704244.4,2145510.1,0.0,0.0,,73.4,148.6,75.3,149.8,470.1,7.1,41.89007914428136,-87.63503836217389,"(41.89007914428136, -87.63503836217389)",2022-175523,36,37,4446.0,652,22
2022,257001,,Submitted Data,540 W Webster,60614,4.0,False,,Multifamily Housing,273506.0,2015.0,1,,95,4533565.2,6264130.0,0.0,0.0,,52.2,93.2,52.5,92.4,929.9,4.5,41.922009660860056,-87.64299271703334,"(41.922009660860056, -87.64299271703334)",2022-257001,34,68,21190.0,745,51
2022,251557,Lavizzo Elementary - CPS,Submitted Data,137 W 108th Pl,60628,1.0,False,ROSELAND,K-12 School,83900.0,1999.0,1,,24,3177803.8,4213710.1,0.0,0.0,,88.1,158.8,89.9,158.0,642.4,7.7,41.69698446268434,-87.62707722960421,"(41.69698446268434, -87.62707722960421)",2022-251557,22,45,21861.0,524,45
2022,137704,Vranas and Assoc. C/O Realty and Mortgage Co.,Submitted Data,346 N Justine St,60607,4.0,False,NEAR WEST SIDE,Office,91680.0,1915.0,1,,98,906552.7,2398993.1,0.0,0.0,,36.1,55.2,37.3,55.5,246.8,2.7,41.88789268024026,-87.66566105578042,"(41.88789268024026, -87.66566105578042)",2022-137704,46,29,14917.0,63,41
2022,228537,201 E Chestnut St,Submitted Data,201 E Chestnut St,60611,1.0,False,NEAR NORTH SIDE,Multifamily Housing,224710.0,1966.0,1,,26,9478197.2,3364459.3,0.0,0.0,,63.7,149.3,65.6,152.5,1427.1,7.1,41.89831088690182,-87.62176979076267,"(41.89831088690182, -87.62176979076267)",2022-228537,11,37,21182.0,233,22
2022,254004,,Submitted Data,2700 N Halsted St,60614,4.0,False,Lincoln Park,Multifamily Housing,106304.0,2002.0,1,,99,1153707.6,2712026.0,0.0,0.0,,45.2,71.1,45.8,70.7,296.0,3.5,41.93157329151902,-87.64911885057478,"(41.93157329151902, -87.64911885057478)",2022-254004,34,68,21190.0,769,51
2022,101804,401 N Michigan Ave,Submitted Data,401 N Michigan Ave,60611,4.0,False,NEAR NORTH SIDE,Office,1103049.0,1965.0,1,,79,30069110.9,52141178.6,0.0,0.0,,79.0,133.5,77.6,132.0,6730.0,6.5,41.88935425192819,-87.62410245624348,"(41.88935425192819, -87.62410245624348)",2022-101804,36,37,21182.0,159,22
2022,250051,Simeon Career Academy HS -CPS,Submitted Data,8235 S Vincennes Ave,60620,1.0,False,CHATHAM,K-12 School,284691.0,2003.0,2,,18,13970696.4,14720339.7,0.0,0.0,,100.8,191.7,101.7,190.5,2622.0,9.2,41.74429713306096,-87.63575609207416,"(41.74429713306096, -87.63575609207416)",2022-250051,13,40,21554.0,1,18
2022,251315,"Jewel Osco, 02502-Clybourn & Wrightwood",Submitted Data,2550 N Clybourn St,60614,2.0,False,LINCOLN PARK,Supermarket/Grocery Store,85209.0,2013.0,1,,49,10360200.0,11176499.3,0.0,0.0,,252.8,478.2,262.5,486.5,1958.2,23.0,41.92787172311833,-87.67325881463049,"(41.92787172311833, -87.67325881463049)",2022-251315,40,68,21190.0,743,16
2022,119223,"Home Depot, #1980 Kimball & Addiston",Submitted Data,3500 N Kimball Ave,60618,2.5,False,AVONDALE,Retail Store,109634.0,2003.0,1,,58,3679508.1,8112153.8,0.0,0.0,,107.6,171.7,111.5,174.2,915.5,8.4,41.944881073845465,-87.71280508875888,"(41.944881073845465, -87.71280508875888)",2022-119223,12,22,21538.0,138,15
2022,111724,,Submitted Data,1872  N CLYBOURN AVE,60614,4.0,False,LINCOLN PARK,Multifamily Housing,118326.0,1983.0,1,,87,2692109.3,3172699.9,0.0,0.0,,49.6,91.9,49.8,90.7,523.1,4.4,41.914997180480015,-87.6554262767647,"(41.914997180480015, -87.6554262767647)",2022-111724,11,68,21190.0,168,16
2022,160451,,Submitted Data,50 E Chestnut St,60611,1.0,False,NEAR NORTH SIDE,Multifamily Housing,155910.0,2007.0,1,,19,4884572.2,9949532.4,0.0,0.0,,107.1,174.2,112.2,178.0,1171.8,8.5,41.898465006200965,-87.62633254605812,"(41.898465006200965, -87.62633254605812)",2022-160451,36,37,21182.0,104,22
2022,175728,,Submitted Data,808 812 W JUNIOR TER,60613,2.5,False,UPTOWN,Multifamily Housing,76690.0,1920.0,1,,38,3520179.1,1524020.4,0.0,0.0,,65.8,149.4,67.7,154.8,544.6,7.1,41.96047272250848,-87.65028170240782,"(41.960472722508484, -87.65028170240782)",2022-175728,39,31,21186.0,577,37
2022,136845,US Bank -- Englewood,Submitted Data,815 W 63rd St,60621,2.0,False,ENGLEWOOD,Office,63034.0,1920.0,1,,46,1969650.0,3445923.7,0.0,0.0,,85.9,144.9,88.6,147.7,442.5,7.0,41.77963107685854,-87.64546976885099,"(41.77963107685854, -87.64546976885099)",2022-136845,4,66,21559.0,436,53
2022,251896,Region 4 Office -CPS,Submitted Data,4655 S Dearborn St,60609,4.0,False,GRAND BOULEVARD,Office,99100.0,1990.0,1,,73,2590663.4,6537660.3,0.0,0.0,,92.1,142.5,95.6,146.1,688.5,6.9,41.809654802646655,-87.6270297980589,"(41.809654802646655, -87.6270297980589)",2022-251896,9,4,14924.0,219,12
2022,251250,Lincoln Park Villas,Submitted Data,1920 N Clark St,60614,2.5,False,LINCOLN PARK,Multifamily Housing,82955.0,1974.0,1,,51,3324481.3,992962.8,0.0,0.0,,60.2,144.3,61.5,147.5,490.6,6.8,41.917196550207095,-87.63548943346167,"(41.917196550207095, -87.63548943346167)",2022-251250,34,68,21190.0,271,51
2022,250067,Goldblatts Building,Submitted Data,1609 W Chicago Ave,60622,2.5,False,WEST TOWN,Office,160280.0,1940.0,1,,58,9016977.9,3091890.3,0.0,0.0,,75.5,177.8,75.2,174.3,1351.9,8.4,41.895957437521645,-87.66766386349812,"(41.895957437521645, -87.66766386349812)",2022-250067,41,25,21560.0,520,24
2022,231297,1000 W Adams Condo Association,Submitted Data,1000 W Adams St,60607,4.0,False,NEAR WEST SIDE,Multifamily Housing,244331.0,1999.0,1,,80,4476631.6,7464100.3,0.0,0.0,,64.3,109.7,66.2,111.7,986.1,5.3,41.87924663645916,-87.65208561253912,"(41.87924663645916, -87.65208561253912)",2022-231297,26,29,14917.0,91,48
2022,256490,,Submitted Data,5427 N Broadway St,60640,3.0,False,EDGEWATER,Multifamily Housing,93960.0,1910.0,3,,69,1436601.2,4991709.4,0.0,0.0,,73.0,105.3,74.7,107.0,454.4,5.2,41.98080171783289,-87.65984390503488,"(41.98080171783289, -87.65984390503488)",2022-256490,16,76,22616.0,160,40
2022,105608,,Submitted Data,513 519 W BRIAR PL,60657,1.5,False,LAKE VIEW,Multifamily Housing,50736.0,1932.0,1,,35,863512.0,4157249.1,0.0,0.0,,99.0,133.7,101.1,133.8,334.5,6.6,41.93860590925392,-87.64251625116094,"(41.938605909253916, -87.64251625116094)",2022-105608,25,57,4449.0,683,38
2022,112320,,Submitted Data,1020  W THORNDALE AVE,60660,1.0,False,EDGEWATER,Multifamily Housing,55000.0,1976.0,1,,17,1100432.2,5651618.5,0.0,0.0,,122.8,163.9,127.7,168.5,445.1,8.1,41.99020025218026,-87.65631782611601,"(41.99020025218026, -87.65631782611601)",2022-112320,16,76,4451.0,213,40
2022,251407,Agassiz Elementary -CPS,Submitted Data,2851 N Seminary Ave,60657,1.0,False,LAKE VIEW,K-12 School,57743.0,1913.0,1,,6,1546536.7,7788209.9,0.0,0.0,,161.7,216.6,171.3,227.7,617.4,10.7,41.93412004040734,-87.65619167453802,"(41.93412004040734, -87.65619167453802)",2022-251407,25,57,4449.0,680,38
2022,251289,The Madison at Racine/1200 Madison Racine LLC,Submitted Data,1164 W Madison,60607,3.5,False,NEAR WEST SIDE,Multifamily Housing,303222.0,2014.0,1,,75,7122683.2,7867775.5,0.0,0.0,,59.2,111.3,59.2,109.9,1356.1,5.4,41.88173387686932,-87.65671487822395,"(41.88173387686932, -87.65671487822395)",2022-251289,26,29,14917.0,63,41
2022,121264,Chicago Theological Seminary,Submitted Data,1407 E 60th St,60637,4.0,False,WOODLAWN,College/University,80489.0,2011.0,1,,,2321395.2,27533.0,4195895.2,1587240.0,,101.0,161.8,101.3,162.5,669.5,8.3,41.78598917841517,-87.59118162844564,"(41.785989178415164, -87.59118162844564)",2022-121264,4,9,22260.0,426,53
2022,241007,ParkView at River East Condominium Association,Submitted Data,505 N McClurg Ct,60611,1.0,False,NEAR NORTH SIDE,Multifamily Housing,437074.0,2008.0,1,,30,14556355.8,22183554.5,0.0,0.0,,84.1,146.5,87.7,149.9,3095.6,7.1,41.89123659335269,-87.61752783895781,"(41.89123659335269, -87.61752783895781)",2022-241007,36,37,21182.0,534,22
2022,120267,Pete's Madison,Submitted Data,2333 W Madison,60612,1.0,False,NEAR WEST SIDE,Supermarket/Grocery Store,66000.0,2013.0,,,29,11169349.3,10089445.8,0.0,0.0,,322.1,634.4,324.6,632.1,2007.1,30.4,41.88106937422222,-87.68530755272025,"(41.88106937422222, -87.68530755272025)",2022-120267,46,29,21184.0,766,48
2022,176010,"Friedman Properties, Ltd",Submitted Data,420 N Wabash Ave,60611,1.0,False,NEAR NORTH SIDE,Office,102450.0,1906.0,1,,21,8729768.8,5151899.8,0.0,0.0,,135.5,291.4,134.2,287.7,1423.5,13.9,41.89004509255256,-87.62681033007378,"(41.89004509255256, -87.62681033007378)",2022-176010,36,37,21182.0,626,22
2022,105790,Uptown Regency,Submitted Data,5046 5052 N SHERIDAN RD,60640,1.0,False,UPTOWN,Multifamily Housing,115533.0,1928.0,1,,25,2655410.4,11087045.4,0.0,0.0,,118.9,165.1,123.4,168.3,938.6,8.1,41.974731931412656,-87.6551137010918,"(41.974731931412656, -87.6551137010918)",2022-105790,16,31,22616.0,634,37
2022,240215,757 Orleans at Chicago Condominium,Submitted Data,757 N Orleans St,60654,4.0,False,NEAR NORTH SIDE,Multifamily Housing,412335.0,2008.0,1,,85,9918541.3,7364101.4,0.0,0.0,,54.3,111.6,53.0,108.0,1697.6,5.3,41.89650311075949,-87.63702357094722,"(41.89650311075949, -87.63702357094722)",2022-240215,36,37,4446.0,652,22
2022,255012,Vue53,Submitted Data,1330 E 53RD ST,60615,0.0,False,Hyde Park,,315872.0,,,,,,,,,,,,,,,,41.79959786938958,-87.59376103688076,"(41.79959786938958, -87.59376103688076)",2022-255012,10,8,21192.0,499,1
2022,238266,The Fordham Condominium Association,Submitted Data,25 E Superior St,60611,1.0,False,NEAR NORTH SIDE,Multifamily Housing,793352.0,2003.0,1,,17,27749094.1,9669844.9,0.0,0.0,,63.5,149.2,65.0,152.4,4168.6,7.1,41.89558509805822,-87.6270635345156,"(41.89558509805822, -87.6270635345156)",2022-238266,36,37,21182.0,626,22
2022,250109,Vivian Gordon Harsh Apts,Submitted Data,4227 S Oakenwald Ave,60653,2.5,False,OAKLAND,Multifamily Housing,102424.0,1963.0,1,,38,2018147.6,8987720.2,0.0,0.0,,107.5,147.3,114.7,154.9,743.2,7.3,41.81733455105252,-87.59766473441066,"(41.81733455105252, -87.59766473441066)",2022-250109,10,2,4301.0,220,1
2022,111466,,Submitted Data,939 W HURON ST,60642,4.0,False,WEST TOWN,Multifamily Housing,60000.0,1992.0,1,,94,1173575.5,2176043.5,0.0,0.0,,55.8,92.8,56.4,92.3,270.2,4.5,41.89491674977685,-87.65158852435547,"(41.89491674977685, -87.65158852435547)",2022-111466,46,25,22620.0,522,41
2022,251639,Kilmer Elementary -CPS,Submitted Data,6700 N Greenview Ave,60626,3.5,False,ROGERS PARK,K-12 School,106366.0,1930.0,2,,76,2522385.8,2165600.0,0.0,0.0,,44.1,87.8,44.5,86.7,447.3,4.2,42.003676220369776,-87.66826025653212,"(42.003676220369776, -87.66826025653212)",2022-251639,5,10,21853.0,358,46
2022,250134,Central Standard Building,Submitted Data,231 S LaSalle St,60604,4.0,False,LOOP,Office,1181159.0,1924.0,1,,86,25670799.1,20586668.7,0.0,12751979.7,,50.0,89.0,50.1,89.4,5416.9,4.6,41.87854293163992,-87.63212057674588,"(41.87854293163992, -87.63212057674588)",2022-250134,36,38,14912.0,92,22
2022,136487,Friend Family Health Center at University of Chicago,Submitted Data,800 E 55th St,60615,1.0,False,HYDE PARK,Medical Office,73327.0,1964.0,1,,17,3602053.8,9507326.0,0.0,0.0,,178.8,273.7,172.9,262.8,979.4,13.4,41.7950752068089,-87.60609660928338,"(41.7950752068089, -87.60609660928338)",2022-136487,33,8,21192.0,440,32
2022,159892,Promontory Apartments,Submitted Data,5530 S SHORE DR,60637,0.0,False,HYDE PARK,,183800.0,,,,,,,,,,,,,,,,41.794351298103074,-87.5805783780428,"(41.794351298103074, -87.5805783780428)",2022-159892,33,8,21192.0,502,32
2022,159735,Sheridan Plaza Apartments,Submitted Data,4601 4613 N SHERIDAN RD,60640,4.0,False,UPTOWN,Multifamily Housing,165792.0,1920.0,1,,69,4564179.7,5439612.7,0.0,0.0,,64.9,119.9,65.9,120.3,890.1,5.8,41.96547960606311,-87.65464151233401,"(41.96547960606311, -87.65464151233401)",2022-159735,39,31,22616.0,19,37
2022,160444,1225 Old Town,Submitted Data,1225 N Wells St,60610,4.0,False,NEAR NORTH SIDE,Multifamily Housing,525604.0,2012.0,1,,89,12835435.4,10738394.8,0.0,0.0,,53.8,107.8,55.5,109.5,2261.0,5.2,41.90465048246211,-87.63436067270801,"(41.90465048246211, -87.63436067270801)",2022-160444,11,37,14926.0,290,51
2022,238595,,Submitted Data,3920 N LAKE SHORE DR,60613,3.5,False,LAKE VIEW,Multifamily Housing,100460.0,1968.0,1,,75,1533241.6,6555627.3,0.0,0.0,,88.4,122.2,93.6,126.0,550.2,6.0,41.953622854070325,-87.6452129862204,"(41.953622854070325, -87.6452129862204)",2022-238595,39,57,21186.0,690,37
2022,104239,,Submitted Data,517 525 W BROMPTON AVE,60657,4.0,False,LAKE VIEW,Multifamily Housing,52304.0,1924.0,1,,91,530950.2,2796260.3,0.0,0.0,,63.6,84.6,66.7,87.8,218.5,4.2,41.94738624548753,-87.64351533069696,"(41.94738624548753, -87.64351533069696)",2022-104239,39,57,4449.0,726,37
2022,254076,North Water Apartments & Loews Chicago Hotel,Submitted Data,340 E North Water St,60611,4.0,False,Near North Side,Multifamily Housing,932299.0,2015.0,1,,95,24733043.2,16105736.9,0.0,0.0,,47.6,100.4,47.3,98.5,4113.1,4.8,41.889625933967935,-87.61897349986683,"(41.889625933967935, -87.61897349986683)",2022-254076,36,37,21182.0,159,22
2022,253983,Fulton Place Condominium Association,Submitted Data,657 W Fulton St,60661,4.0,False,NEAR WEST SIDE,Multifamily Housing,115000.0,2006.0,1,,93,2239043.0,2869414.1,0.0,0.0,,44.4,80.7,44.3,79.3,447.3,3.9,41.886694736196496,-87.64503360250157,"(41.886694736196496, -87.64503360250157)",2022-253983,36,29,4452.0,784,41
2022,103684,NMH Arkes Family Pavilion,Submitted Data,676 N St Clair St,60611,1.5,False,NEAR NORTH SIDE,Medical Office,675000.0,1980.0,1,,37,68429785.2,240000.0,0.0,0.0,,101.7,284.2,102.2,285.6,9025.9,13.4,41.89485296136011,-87.62290180042824,"(41.89485296136011, -87.62290180042824)",2022-103684,36,37,21182.0,158,22
2022,127990,California Gardens Rehabilitation Center,Submitted Data,2829 S CALIFORNIA BLVD,60608,2.0,False,SOUTH LAWNDALE,Senior Living Community,103076.0,1977.0,1,,21,4118427.6,10428719.9,0.0,0.0,,199.7,308.6,204.8,310.2,1096.4,15.1,41.84044117433884,-87.69411458780368,"(41.840441174338835, -87.69411458780368)",2022-127990,1,32,14920.0,124,29
2022,251335,Student Center,Submitted Data,2250 N Sheffield Ave,60614,1.0,False,LINCOLN PARK,College/University,149381.0,2001.0,1,,,10084698.1,12500368.4,0.0,0.0,,151.2,276.9,156.3,282.3,1992.3,13.3,41.92323686568482,-87.65368542924351,"(41.92323686568482, -87.65368542924351)",2022-251335,34,68,21190.0,797,16
2022,149732,,Submitted Data,1601  S STATE ST,60616,4.0,False,NEAR SOUTH SIDE,Multifamily Housing,92181.0,2004.0,1,,84,1600631.4,2657134.7,0.0,0.0,,60.0,102.5,60.3,101.5,352.0,5.0,41.860121221610186,-87.62711466837658,"(41.860121221610186, -87.62711466837658)",2022-149732,9,34,21194.0,374,12
2022,103628,1K Fulton,Submitted Data,1000 W Fulton St,60607,4.0,False,NEAR WEST SIDE,Office,629476.0,1923.0,1,,81,20065373.8,21715017.0,0.0,0.0,,74.2,140.3,75.2,140.7,3796.3,6.7,41.886848295491134,-87.65223416110463,"(41.886848295491134, -87.65223416110463)",2022-103628,46,29,14917.0,63,41
2022,254999,2950 North Sheridan,Submitted Data,2950 N SHERIDAN RD,60657,2.5,False,Lake View,Multifamily Housing,205313.0,2017.0,1,,53,5420910.6,5600215.5,0.0,0.0,,81.4,155.5,84.2,158.0,1011.5,7.5,41.93580857210609,-87.63955263861406,"(41.93580857210609, -87.63955263861406)",2022-254999,25,57,4449.0,153,38
2022,251930,The Granville Condominum Association,Submitted Data,1134 W Granville Ave,60660,2.0,False,EDGEWATER,Multifamily Housing,348150.0,2008.0,1,,46,8948110.4,15286091.1,0.0,0.0,,100.4,170.4,102.8,172.8,1990.5,8.2,41.994668626921786,-87.65977915264904,"(41.994668626921786, -87.65977915264904)",2022-251930,16,76,4451.0,45,3
2022,252274,COP_MADW5957,Submitted Data,5957-73 W Madison St,60644,1.0,False,AUSTIN,Multifamily Housing,62250.0,1930.0,1,,4,2854373.4,3903827.0,0.0,0.0,,108.6,194.2,110.4,195.3,583.3,9.4,41.87998577347194,-87.77409844314116,"(41.879985773471944, -87.77409844314116)",2022-252274,7,26,22216.0,67,52
2022,103687,Sullivan Center,Submitted Data,1 S State St,60603,3.5,False,LOOP,Office,870368.0,1899.0,1,,79,21168069.0,34137988.3,0.0,0.0,,63.5,109.3,65.8,110.7,4601.4,5.3,41.88199519763546,-87.62764724522982,"(41.88199519763546, -87.62764724522982)",2022-103687,36,38,14311.0,367,22
2022,251504,Haines Elementary -CPS,Submitted Data,247 W 23rd Place,60616,1.0,False,ARMOUR SQUARE,K-12 School,75558.0,1995.0,1,,4,4828835.7,3565600.1,0.0,0.0,,111.1,228.5,111.1,225.2,825.4,10.9,41.84993115543317,-87.63378596064732,"(41.84993115543317, -87.63378596064732)",2022-251504,26,35,21194.0,3,8
2022,251668,Ravenswood Elementary -CPS,Submitted Data,4332 N Paulina St,60613,2.0,False,LAKE VIEW,K-12 School,76423.0,1915.0,3,,45,1125168.4,6295730.0,0.0,0.0,,97.1,127.7,101.6,132.5,482.6,6.3,41.960741285863286,-87.67095905441798,"(41.960741285863286, -87.67095905441798)",2022-251668,18,57,21186.0,651,13
2022,244747,Lancaster Condo Association,Submitted Data,201 N Westshore Dr,60601,2.0,False,LOOP,Multifamily Housing,434100.0,2004.0,1,,48,8700219.6,19967599.9,0.0,0.0,,88.8,140.3,93.3,145.1,2206.5,6.8,41.88617367041158,-87.61610866309985,"(41.88617367041158, -87.61610866309985)",2022-244747,36,38,14309.0,580,22
2022,163223,Salem Baptist Church of Chicago,Submitted Data,10909 S Cottage Grove Ave,60628,1.0,False,PULLMAN,Worship Facility,91800.0,1960.0,1,,1,1707035.8,130570524.6,0.0,0.0,,1440.9,1545.5,1440.9,1545.5,7160.1,78.0,41.69608664717804,-87.6089453328002,"(41.696086647178035, -87.6089453328002)",2022-163223,43,47,21861.0,254,30
2022,227730,,Submitted Data,4300 N MARINE DR,60613,4.0,False,UPTOWN,Multifamily Housing,231174.0,1930.0,1,,82,1906684.1,12541618.6,0.0,0.0,,74.5,95.5,78.5,98.9,917.3,4.7,41.96104829587564,-87.64697134397929,"(41.96104829587564, -87.64697134397929)",2022-227730,39,31,21186.0,636,37
2022,251319,03262-Irving Park & Cicero,Submitted Data,4660 W Irving Park Rd,60641,4.0,False,PORTAGE PARK,Supermarket/Grocery Store,70790.0,1997.0,1,,77,9205524.6,2544800.0,0.0,0.0,,166.0,401.9,166.6,400.0,1347.7,19.0,41.95355443840363,-87.74505531119503,"(41.95355443840363, -87.74505531119503)",2022-251319,50,15,22618.0,139,20
2022,119039,Churchview Manors and Churview supportive Living,Submitted Data,2626 2644 W 63RD ST,60629,1.0,False,CHICAGO LAWN,Senior Living Community,74185.0,2004.0,1,,25,2192672.5,6039580.0,0.0,0.0,,122.2,185.2,127.2,190.5,609.6,9.0,41.779280990198,-87.68967948643505,"(41.779280990198004, -87.68967948643505)",2022-119039,2,64,21867.0,111,44
2022,251501,Mayer -CPS,Submitted Data,2250 N Clifton Ave,60614,1.5,False,LINCOLN PARK,K-12 School,73514.0,1959.0,1,,34,2240807.2,3964220.1,0.0,0.0,,84.4,142.0,86.4,142.1,505.7,6.9,41.92317656654279,-87.65732331466856,"(41.923176566542786, -87.65732331466856)",2022-251501,34,68,21190.0,797,16
2022,115956,,Submitted Data,1245  S WOOD ST,60608,2.0,False,NEAR WEST SIDE,Senior Living Community,97974.0,2001.0,1,,50,2021357.5,6621700.0,0.0,0.0,,103.3,150.7,107.3,153.6,618.0,7.4,41.86539785619372,-87.6711622194772,"(41.86539785619372, -87.6711622194772)",2022-115956,23,29,14920.0,96,48
2022,251959,"Moody Bible Institute, Torrey-Gray Doane",Submitted Data,840 N LaSalle St,60610,3.0,False,NEAR NORTH SIDE,College/University,86585.0,1939.0,1,,,7031934.0,0.0,0.0,0.0,,81.2,227.4,81.2,227.4,926.2,10.7,41.89782822977598,-87.63288020747434,"(41.89782822977598, -87.63288020747434)",2022-251959,11,37,14926.0,310,22
2022,256529,,Submitted Data,1411 E 53Rd St,60615,3.0,False,Hyde Park,Hotel,78269.0,2018.0,1,,65,3841765.4,3856900.9,0.0,0.0,,104.0,200.1,103.8,198.4,710.9,9.6,41.79940700764112,-87.59128321240976,"(41.799407007641115, -87.59128321240976)",2022-256529,33,8,21192.0,500,1
2022,251726,Dyett HS -CPS,Submitted Data,555 E 51st St,60615,1.0,False,WASHINGTON PARK,K-12 School,162840.0,1970.0,2,,3,8126374.0,21116560.5,0.0,0.0,,179.6,275.9,189.7,286.5,2192.0,13.5,41.802049821529806,-87.61192836248603,"(41.802049821529806, -87.61192836248603)",2022-251726,10,7,21192.0,218,1
2022,251650,Brentano Math & Science Academy -CPS,Submitted Data,2723 N Fairfield Ave,60647,3.5,False,LOGAN SQUARE,K-12 School,117104.0,1893.0,1,,74,1541104.8,6210510.0,0.0,0.0,,66.2,92.5,68.5,95.0,532.9,4.6,41.93097047175388,-87.69625758176569,"(41.93097047175388, -87.69625758176569)",2022-251650,40,23,22535.0,468,15
2022,106052,,Submitted Data,6214 6218 N WINTHROP AVE,60660,4.0,False,EDGEWATER,Multifamily Housing,58321.0,1969.0,1,,92,885330.4,3507483.6,0.0,0.0,,75.3,105.7,77.9,107.7,302.9,5.2,41.99501545756655,-87.65851603573412,"(41.995015457566545, -87.65851603573412)",2022-106052,16,76,4451.0,45,40
2022,252326,-,Submitted Data,6200-42 N Hoyne Ave,60659,1.5,False,WEST RIDGE,Multifamily Housing,177250.0,1950.0,1,,31,3378006.3,13520020.4,0.0,0.0,,102.3,143.1,106.3,147.4,1163.0,7.0,41.99431203543439,-87.68253912416762,"(41.99431203543439, -87.68253912416762)",2022-252326,27,20,4450.0,53,42
2022,255165,Alta Roosevelt,Submitted Data,801 S Financial Place,60605,4.0,False,LOOP,Multifamily Housing,744961.0,2017.0,1,,87,14813187.6,15072831.5,0.0,0.0,,47.2,90.5,47.4,89.7,2751.7,4.3,41.87210229663722,-87.6327971339645,"(41.87210229663722, -87.6327971339645)",2022-255165,26,38,14917.0,12,48
2022,252073,118 S Clinton St,Submitted Data,118 S Clinton St,60661,1.0,False,NEAR WEST SIDE,Office,78751.0,1910.0,1,,30,4949388.8,0.0,0.0,0.0,,62.8,176.0,62.6,175.4,651.9,8.3,41.87995707099538,-87.64128000375057,"(41.87995707099538, -87.64128000375057)",2022-252073,36,29,4452.0,786,48
2022,160453,Halsted Flats,Submitted Data,3740 N Halsted St,60613,3.0,False,LAKE VIEW,Multifamily Housing,329144.0,2014.0,1,,49,8772688.3,10792391.7,0.0,0.0,,85.4,156.7,84.2,153.4,1728.7,7.5,41.95029037918943,-87.64973152310914,"(41.950290379189425, -87.64973152310914)",2022-160453,39,57,21186.0,727,37
2022,175747,,Submitted Data,2014 2036 S MICHIGAN AVE,60616,3.0,False,NEAR SOUTH SIDE,Multifamily Housing,143900.0,1920.0,1,,69,2639632.4,6681000.2,0.0,0.0,,66.6,103.0,68.7,105.1,702.5,5.0,41.85502940955694,-87.62401588817339,"(41.85502940955694, -87.62401588817339)",2022-175747,9,34,21194.0,374,12
2022,113335,,Submitted Data,2024 2030 S WABASH AVE,60616,4.0,False,NEAR SOUTH SIDE,Multifamily Housing,82100.0,1920.0,1,,87,1163215.6,3718300.1,0.0,0.0,,78.6,115.3,81.7,117.0,350.7,5.6,41.85472112748777,-87.62568756593224,"(41.85472112748777, -87.62568756593224)",2022-113335,9,34,21194.0,374,12
2022,124961,,Submitted Data,2769 2789 N MILWAUKEE AVE,60647,3.0,False,LOGAN SQUARE,Multifamily Housing,50000.0,1920.0,1,,,1213522.1,4366789.2,0.0,0.0,,111.6,159.7,116.8,162.6,391.8,7.8,41.93157946354478,-87.71129631772311,"(41.93157946354478, -87.71129631772311)",2022-124961,12,23,22535.0,72,15
2022,175872,Piper's Alley,Submitted Data,230 W North Ave,60610,nan,True,LINCOLN PARK,Mixed Use Property,355532.0,1977.0,1,,,13225901.5,9308692.6,0.0,0.0,,102.6,213.2,101.6,209.1,2236.5,10.2,41.91125996780983,-87.63598750990852,"(41.911259967809826, -87.63598750990852)",2022-175872,11,68,21190.0,271,51
2022,256844,,Submitted Data,1308 N Elston,60642,4.0,False,,Office,110951.0,1914.0,2,,,1414755.1,0.0,0.0,0.0,,12.8,35.7,12.8,35.7,186.3,1.7,41.90565114933735,-87.6597988941693,"(41.905651149337345, -87.6597988941693)",2022-256844,46,25,22620.0,109,16
2022,116144,,Submitted Data,633  S PLYMOUTH CT,60605,4.0,False,LOOP,Multifamily Housing,125000.0,1895.0,1,,92,1965670.6,4546616.1,0.0,0.0,,52.1,82.2,52.8,81.9,500.4,4.0,41.87363430790008,-87.62852667938513,"(41.87363430790008, -87.62852667938513)",2022-116144,10,38,14913.0,12,48
2022,175346,,Submitted Data,4700  S COTTAGE GROVE AVE,60615,1.0,False,GRAND BOULEVARD,Multifamily Housing,201415.0,2013.0,5,,8,10141479.4,5117380.3,0.0,0.0,,75.8,167.7,76.6,167.2,1607.6,8.0,41.809485427538256,-87.60671081843334,"(41.809485427538256, -87.60671081843334)",2022-175346,10,4,21192.0,165,1
2022,113569,,Submitted Data,1310  N RITCHIE CT,60610,2.0,False,NEAR NORTH SIDE,Multifamily Housing,198780.0,1963.0,1,,49,4110562.4,14441422.4,0.0,0.0,,102.1,146.8,108.1,152.2,1308.5,7.2,41.9062119910102,-87.6267466271917,"(41.9062119910102, -87.6267466271917)",2022-113569,34,37,14926.0,308,51
2022,251367,Norwood Park Elementary -CPS,Submitted Data,5900 N Nina Ave,60631,2.0,False,NORWOOD PARK,K-12 School,56330.0,1916.0,1,,24,2385653.4,1925500.0,0.0,0.0,,76.5,154.5,77.8,155.9,416.5,7.4,41.98818135794568,-87.80299207101535,"(41.98818135794568, -87.80299207101535)",2022-251367,29,36,22243.0,733,34
2022,105653,,Submitted Data,601  E 32ND ST,60616,1.0,False,DOUGLAS,Multifamily Housing,190893.0,1958.0,1,,17,4764495.0,16276422.6,0.0,0.0,,110.2,159.4,115.9,163.5,1492.1,7.8,41.83597610218231,-87.61154076113363,"(41.83597610218231, -87.61154076113363)",2022-105653,10,1,21194.0,581,1
2022,171880,,Submitted Data,515 517 N NOBLE ST,60642,4.0,False,WEST TOWN,Multifamily Housing,66000.0,1989.0,1,,69,1448684.8,2812471.2,0.0,0.0,,64.6,106.2,64.8,104.6,340.2,5.2,41.89152150390864,-87.66213232721346,"(41.891521503908635, -87.66213232721346)",2022-171880,41,25,22620.0,521,41
2022,173617,,Submitted Data,105 W MADISON ST,60602,2.0,False,LOOP,Office,140000.0,1928.0,1,,43,8252628.4,6738300.4,0.0,0.0,,107.1,215.6,111.1,219.8,1444.9,10.3,41.881866029037454,-87.63106646768065,"(41.881866029037454, -87.63106646768065)",2022-173617,36,38,14311.0,92,22
2022,251322,990 West Fullerton Bldg,Submitted Data,990 W Fullerton Ave,60614,4.0,False,LINCOLN PARK,College/University,91963.0,1980.0,1,,,2886061.9,344969.0,0.0,0.0,,35.1,91.8,34.1,89.0,398.5,4.3,41.92548774193395,-87.65349470130349,"(41.92548774193395, -87.65349470130349)",2022-251322,34,68,21190.0,769,51
2022,158841,"Sullivan HS, Roger C -CPS",Submitted Data,6631 N Bosworth Ave,60626,2.0,False,ROGERS PARK,K-12 School,218067.0,1926.0,1,,41,3661860.9,20182780.3,0.0,0.0,,109.3,144.2,111.3,146.2,1554.3,7.1,42.00268693638941,-87.66915532539507,"(42.00268693638941, -87.66915532539507)",2022-158841,5,10,21853.0,242,46
2022,132117,Home Depot,Submitted Data,200 W 87th St,60620,2.5,False,CHATHAM,Retail Store,103580.0,1997.0,1,,52,3886266.8,7944930.9,0.0,0.0,,114.2,185.6,118.7,188.0,933.9,9.0,41.7362616993756,-87.62906471642536,"(41.7362616993756, -87.62906471642536)",2022-132117,13,40,21554.0,1,18
2022,251484,Jungman Elementary -CPS,Submitted Data,1746 S Miller St,60608,1.0,False,LOWER WEST SIDE,K-12 School,69850.0,1902.0,2,,25,1683702.6,5946630.4,0.0,0.0,,109.2,156.9,112.9,160.7,537.6,7.7,41.85810053268494,-87.65233933168739,"(41.85810053268494, -87.65233933168739)",2022-251484,26,33,14920.0,228,8
2022,251363,Franklin Fine Arts Center -CPS,Submitted Data,225 W Evergreen Ave,60610,1.5,False,NEAR NORTH SIDE,K-12 School,53097.0,1926.0,1,,39,894479.7,4467230.0,0.0,0.0,,101.0,135.5,106.2,140.9,355.1,6.7,41.906572532817,-87.63551359944138,"(41.906572532817, -87.63551359944138)",2022-251363,46,37,14926.0,290,51
2022,244534,One Museum Park East Condominium Association,Submitted Data,1211 S Prairie Ave,60605,4.0,False,NEAR SOUTH SIDE,Multifamily Housing,1151549.0,2008.0,1,,91,16249130.5,42635808.7,0.0,0.0,,61.8,94.8,64.6,96.8,4404.8,4.6,41.86633687858846,-87.62150001908202,"(41.86633687858846, -87.62150001908202)",2022-244534,9,34,14913.0,374,48
2022,159571,2144 N. Lincoln Park Condominium Association,Submitted Data,2144 N Lincoln Park West,60614,4.0,False,LINCOLN PARK,Multifamily Housing,287000.0,1975.0,1,,100,2307333.1,7578651.5,0.0,0.0,,34.4,50.2,36.3,51.7,706.4,2.5,41.92150502692454,-87.63658971224659,"(41.92150502692454, -87.63658971224659)",2022-159571,34,68,21190.0,207,51
2022,164090,Salvation Army,Submitted Data,2258 N Clybourn Ave,60614,4.0,False,LINCOLN PARK,Other - Lodging/Residential,54216.0,1955.0,1,,,384488.2,3418900.1,0.0,0.0,,70.2,86.1,73.5,88.6,235.4,4.3,41.9228752360221,-87.66636681694519,"(41.9228752360221, -87.66636681694519)",2022-164090,11,68,21190.0,210,16
2022,256547,,Submitted Data,8647 W Higgins Road,60631,4.0,False,O'Hare,Office,371216.0,2019.0,1,,87,8873966.0,0.0,0.0,0.0,,59.6,166.9,60.0,167.9,1168.8,7.9,41.98716263225842,-87.84264485134257,"(41.98716263225842, -87.84264485134257)",2022-256547,29,75,22243.0,64,34
2022,118872,,Submitted Data,2630 N NARRAGANSETT AVE,60639,4.0,False,BELMONT CRAGIN,Wholesale Club/Supercenter,280130.0,2005.0,1,,80,4826092.6,3998699.9,0.0,0.0,,63.7,127.9,63.7,125.8,848.1,6.1,41.92827899282121,-87.78576125719601,"(41.92827899282121, -87.78576125719601)",2022-118872,44,19,4454.0,137,39
2022,116418,,Submitted Data,6950  S VINCENNES AVE,60621,4.0,False,GREATER GRAND CROSSING,Multifamily Housing,50388.0,1983.0,1,,98,1645075.1,666168.6,0.0,0.0,,45.9,105.3,47.2,108.9,252.1,5.0,41.76766104604639,-87.62710082246234,"(41.767661046046385, -87.62710082246234)",2022-116418,32,67,21559.0,513,31
2022,251657,Locke Elementary -CPS,Submitted Data,2845 N Newcastle Ave,60634,3.5,False,MONTCLARE,K-12 School,120716.0,1927.0,4,,53,2917314.7,5259200.1,0.0,0.0,,67.7,113.4,68.8,114.5,663.6,5.5,41.93220433402484,-87.79658705009759,"(41.93220433402484, -87.79658705009759)",2022-251657,44,18,22254.0,397,39
2022,172725,"Jewel Osco, 03442-Foster & Pulaski",Submitted Data,4042 W Foster Ave,60630,4.0,False,NORTH PARK,Supermarket/Grocery Store,65227.0,1992.0,1,,86,7237155.9,2278599.7,0.0,0.0,,145.9,347.3,146.5,345.5,1074.3,16.5,41.97562411244582,-87.7298445615703,"(41.97562411244582, -87.7298445615703)",2022-172725,38,13,21869.0,748,28
2022,138730,Grand Blvd Plaza,Submitted Data,5401 S WENTWORTH AVE,60609,0.0,False,FULLER PARK,,138730.0,,,,,,,,,,,,,,,,41.796234875219376,-87.63040492438661,"(41.796234875219376, -87.63040492438661)",2022-138730,9,3,14924.0,224,12
2022,118700,"Home Depot, #1986 47th & Western",Submitted Data,4555 S Western Blvd,60609,4.0,False,NEW CITY,Retail Store,103699.0,2005.0,1,,68,3565577.9,5817575.5,0.0,0.0,,90.5,155.2,93.6,156.7,778.6,7.5,41.81045154616481,-87.68377440132318,"(41.81045154616481, -87.68377440132318)",2022-118700,1,59,14924.0,706,29
2022,100674,,Submitted Data,3301 W Arthington St,60624,4.0,False,NORTH LAWNDALE,Multifamily Housing,228897.0,1909.0,2,,98,2464876.0,10564274.6,0.0,0.0,,56.9,78.6,58.3,78.4,885.8,3.9,41.86992196407865,-87.70833406691246,"(41.86992196407865, -87.70833406691246)",2022-100674,14,30,21572.0,98,36
2022,256727,The Jax,Submitted Data,1220 W. Jackson Blvd,nan,3.0,False,,Multifamily Housing,129646.0,2020.0,1,,69,3870764.1,4328299.9,0.0,0.0,,63.2,118.7,62.8,117.4,739.7,5.7,41.877886334877225,-87.65789958341115,"(41.877886334877225, -87.65789958341115)",2022-256727,23,29,14917.0,91,41
2022,237384,Maple Tower Condominiums,Submitted Data,1035 N DEARBORN ST,60610,4.0,False,NEAR NORTH SIDE,Multifamily Housing,150000.0,2006.0,1,,89,4456159.6,797509.8,0.0,0.0,,35.0,88.8,35.8,90.6,629.3,4.2,41.90167914923734,-87.62977237044007,"(41.90167914923734, -87.62977237044007)",2022-237384,11,37,14926.0,230,22
2022,250175,Catalpa Gardens Condominium Association,Submitted Data,1122 W Catalpa Ave,60640,1.0,False,EDGEWATER,Multifamily Housing,239568.0,2007.0,1,,29,5465348.7,12083239.8,0.0,0.0,,107.0,170.7,112.3,174.6,1361.7,8.3,41.98192398026352,-87.65895578054985,"(41.98192398026352, -87.65895578054985)",2022-250175,16,76,22616.0,145,40
2022,234641,Winston Towers II,Submitted Data,6833 N Kedzie Ave,60645,1.5,False,WEST RIDGE,Multifamily Housing,360669.0,1966.0,1,,33,6756892.5,23164206.8,0.0,0.0,,114.8,165.9,116.3,166.1,2120.3,8.1,42.00561453658591,-87.70917152643794,"(42.00561453658591, -87.70917152643794)",2022-234641,27,20,22528.0,32,42
2022,101560,IL0054ZZ - Clark Fedral Bldg,Submitted Data,536 S Clark St,60605,1.5,False,LOOP,Office,635978.0,1912.0,1,,37,32003002.4,40525632.4,0.0,0.0,,114.0,207.8,117.4,209.1,6367.8,10.0,41.874945069002806,-87.6308324955019,"(41.874945069002806, -87.6308324955019)",2022-101560,10,38,14913.0,92,48
2022,102552,,Submitted Data,3127 3139 W PALMER ST,60647,1.5,False,LOGAN SQUARE,Multifamily Housing,60000.0,2005.0,1,,40,998838.6,4791522.6,0.0,0.0,,96.5,130.5,98.4,131.0,386.1,6.4,41.92055775202496,-87.70633885096979,"(41.92055775202496, -87.70633885096979)",2022-102552,40,23,22535.0,371,15
2022,256799,,Submitted Data,51 E 14TH ST,60605,4.0,False,Near South Side,Multifamily Housing,200675.0,2019.0,4,,83,979758.0,16471640.6,0.0,0.0,,94.4,108.4,98.4,112.6,1003.9,5.4,41.86396179938641,-87.62539875126346,"(41.86396179938641, -87.62539875126346)",2022-256799,9,34,14913.0,374,48
2022,157955,Hilton Chicago,Submitted Data,720 S Michigan Ave,60605,3.0,False,LOOP,Hotel,2054590.0,1927.0,1,,69,77990665.9,122906932.9,0.0,0.0,,97.8,169.1,99.5,170.9,16800.7,8.2,41.87279886935482,-87.62433781031022,"(41.87279886935482, -87.62433781031022)",2022-157955,10,38,14913.0,368,48
2022,173752,Eddystone Condominium Homes,Submitted Data,415 421 W MELROSE ST,60657,4.0,False,LAKE VIEW,Multifamily Housing,249574.0,1928.0,1,,94,1948591.7,13401950.7,0.0,0.0,,62.0,78.8,65.7,81.9,968.5,3.9,41.94108234405776,-87.64019591891191,"(41.941082344057754, -87.64019591891191)",2022-173752,25,57,4449.0,535,38
2022,172137,Newberry Plaza Townhouse Owners Association,Submitted Data,1000 N STATE ST,60610,4.0,False,NEAR NORTH SIDE,Multifamily Housing,61000.0,1970.0,1,,100,1295854.8,0.0,0.0,0.0,,21.2,59.5,20.5,57.3,170.7,2.8,41.90059785649148,-87.62845986900197,"(41.90059785649148, -87.62845986900197)",2022-172137,11,37,14926.0,230,22
2022,129398,Webster Place Shopping Center,Submitted Data,1435 - 1471 W Webster Ave,60614,1.0,False,LINCOLN PARK,Movie Theater,49428.0,1988.0,1,,,3368971.5,6091213.1,0.0,0.0,,191.4,320.2,191.7,314.2,767.3,15.5,41.92150237099721,-87.66458014668036,"(41.92150237099721, -87.66458014668036)",2022-129398,11,68,21190.0,210,16
2022,251394,"Hale Elementary, Nathan -CPS",Submitted Data,6140 S Melvina Ave,60638,4.0,False,CLEARING,K-12 School,99233.0,1953.0,2,,75,1233847.4,5380170.1,0.0,0.0,,66.7,91.7,69.3,94.5,448.3,4.5,41.78020485772612,-87.77661589007339,"(41.78020485772612, -87.77661589007339)",2022-251394,15,62,22268.0,265,35
2022,159283,401 S Clinton St,Submitted Data,401 S Clinton St,60607,3.5,False,NEAR WEST SIDE,Office,163900.0,1996.0,1,,57,10616217.4,0.0,0.0,0.0,,64.8,181.4,64.8,181.4,1398.3,8.5,41.87670981903825,-87.64087797895064,"(41.87670981903825, -87.64087797895064)",2022-159283,26,29,14917.0,97,48
2022,251709,"Volta Elementary, Alessandro -CPS",Submitted Data,4950 N Avers Ave,60625,1.0,False,ALBANY PARK,K-12 School,86480.0,1931.0,3,,8,1986735.9,11061950.2,0.0,0.0,,150.9,198.6,155.4,203.4,849.2,9.8,41.97160604981699,-87.72464138821852,"(41.97160604981699, -87.72464138821852)",2022-251709,38,14,21849.0,127,28
2022,173925,Hinds Laboratory,Submitted Data,5734 S Ellis Ave,60637,1.0,False,HYDE PARK,Laboratory,131381.0,1969.0,1,,,16507348.0,0.0,24259871.3,8583133.8,,375.6,633.4,364.7,621.8,4237.4,32.3,41.790375714510674,-87.60142828157443,"(41.790375714510674, -87.60142828157443)",2022-173925,33,8,22260.0,154,32
2022,157971,Michigan Avenue Lofts,Submitted Data,910 S Michigan Ave,60605,2.5,False,LOOP,Multifamily Housing,604881.0,1911.0,1,,60,10719614.6,24387507.7,0.0,0.0,,67.9,107.6,71.1,109.8,2707.3,5.2,41.8702503903183,-87.62427758029956,"(41.8702503903183, -87.62427758029956)",2022-157971,10,38,14913.0,368,48
2022,251223,564 W Randolph St,Submitted Data,564 W Randolph St,60661,2.5,False,NEAR WEST SIDE,Office,119829.0,1908.0,1,,51,4193324.5,7056670.8,0.0,0.0,,93.9,159.8,97.5,162.4,927.1,7.7,41.88454339773784,-87.64233138672651,"(41.884543397737836, -87.64233138672651)",2022-251223,36,29,4452.0,784,22
2022,251759,Swift Specialty -CPS,Submitted Data,5900 N Winthrop Ave,60660,1.0,False,EDGEWATER,K-12 School,109399.0,1914.0,2,,11,4176114.1,8556819.6,0.0,0.0,,116.4,189.0,119.5,192.3,1004.5,9.2,41.98915734238827,-87.65833342161731,"(41.98915734238827, -87.65833342161731)",2022-251759,16,76,4451.0,13,40
2022,250100,Lorraine Hansberry Senior Apartments,Submitted Data,5670 W Lake St,60644,4.0,False,AUSTIN,Multifamily Housing,106272.0,1976.0,1,,72,2220231.0,7492939.8,0.0,0.0,,91.4,132.5,93.6,134.9,690.4,6.5,41.887913896472526,-87.76763004632718,"(41.887913896472526, -87.76763004632718)",2022-250100,7,26,22216.0,672,52
2022,256250,Balmoral Condo,Submitted Data,2606-2610 W Balmoral Ave,60625,3.5,False,LINCOLN SQUARE,Multifamily Housing,62200.0,1948.0,1,,78,712273.9,3550223.5,0.0,0.0,,81.7,109.6,84.8,112.1,282.4,5.4,41.97960754740881,-87.69452464034086,"(41.97960754740881, -87.69452464034086)",2022-256250,24,6,21849.0,29,46
2022,235635,Hermitage on Huron Condominium Association,Submitted Data,70 W Huron St,60654,4.0,False,NEAR NORTH SIDE,Multifamily Housing,310620.0,1985.0,1,,89,3302683.9,15719593.3,0.0,0.0,,72.3,97.9,74.5,98.2,1270.0,4.8,41.89494810890984,-87.63086594706665,"(41.89494810890984, -87.63086594706665)",2022-235635,11,37,4446.0,670,22
2022,160219,Dana Hotel & Spa,Submitted Data,660 N State St,60654,1.0,False,NEAR NORTH SIDE,Hotel,118403.0,1955.0,1,,20,8720691.2,4065828.6,0.0,0.0,,108.0,242.3,109.6,245.6,1364.6,11.5,41.89418322482492,-87.62828580708,"(41.89418322482492, -87.62828580708)",2022-160219,36,37,4446.0,669,22
2022,103812,400 W Superior St,Submitted Data,400 W Superior St,60654,2.0,False,NEAR NORTH SIDE,Office,130007.0,1998.0,1,,42,8364657.6,2310124.0,0.0,0.0,,82.1,198.8,83.3,200.0,1224.4,9.4,41.89564364052393,-87.63863235213249,"(41.89564364052393, -87.63863235213249)",2022-103812,36,37,4446.0,652,22
2022,240068,The Farallon Condominium,Submitted Data,600 N Dearborn St,60654,1.0,False,NEAR NORTH SIDE,Multifamily Housing,277047.0,2001.0,1,,30,4691440.9,16881198.1,0.0,4426784.3,,116.3,156.1,120.0,160.2,,,41.89248545359695,-87.62982443970971,"(41.89248545359695, -87.62982443970971)",2022-240068,36,37,4446.0,670,22
2022,149143,,Submitted Data,950  W MONROE ST,60607,4.0,False,NEAR WEST SIDE,Multifamily Housing,176040.0,2005.0,1,,80,3497406.9,4680606.9,0.0,0.0,,66.3,119.2,67.5,119.3,709.3,5.7,41.880524948959525,-87.65169271542312,"(41.880524948959525, -87.65169271542312)",2022-149143,26,29,14917.0,91,48
2022,171995,7000-7010 S. Pulaski Road,Submitted Data,7000 7010 S Pulaski Rd,60629,3.0,False,WEST LAWN,Strip Mall,200215.0,1985.0,1,,,3342727.4,4269677.7,0.0,0.0,,118.5,215.6,121.6,216.2,667.1,10.4,41.76588128581981,-87.72258715772858,"(41.76588128581981, -87.72258715772858)",2022-171995,15,63,21867.0,318,23
2022,134982,,Submitted Data,616  W FULTON ST,60661,4.0,False,NEAR WEST SIDE,Multifamily Housing,232167.0,1997.0,1,,99,2820124.5,5016319.2,0.0,0.0,,48.6,81.7,48.8,80.4,637.9,4.0,41.88691782405812,-87.64358612770693,"(41.88691782405812, -87.64358612770693)",2022-134982,36,29,4452.0,784,22
2022,152378,,Submitted Data,4901 4913 S DREXEL BLVD,60615,3.5,False,KENWOOD,Multifamily Housing,86600.0,1960.0,1,,75,2673581.8,1642297.4,0.0,0.0,,49.8,106.4,51.0,108.8,439.4,5.1,41.80583462046716,-87.60367226467476,"(41.80583462046716, -87.60367226467476)",2022-152378,10,5,21192.0,461,1
2022,157346,,Submitted Data,5236 5252 S HYDE PARK BLVD,60615,3.5,False,HYDE PARK,Multifamily Housing,137394.0,1928.0,1,,78,1791200.0,9053540.1,0.0,0.0,,78.9,105.7,84.1,111.1,716.8,5.2,41.79985660307153,-87.58426083013215,"(41.79985660307153, -87.58426083013215)",2022-157346,33,8,21192.0,405,1
2022,244449,30 East Huron Condominium Association,Submitted Data,30 40 E Huron St,60611,1.0,False,NEAR NORTH SIDE,Multifamily Housing,633938.0,1980.0,1,,13,29860392.5,15529946.7,0.0,0.0,,81.6,179.7,83.4,183.2,4757.9,8.6,41.895004916666,-87.6268768692968,"(41.895004916666, -87.6268768692968)",2022-244449,36,37,21182.0,626,22
2022,250113,William Castleman Apartments,Submitted Data,4945 N Sheridan Rd,60640,2.0,False,UPTOWN,Multifamily Housing,149600.0,1967.0,1,,50,2454441.7,13802870.2,0.0,0.0,,108.7,142.8,115.0,149.7,1056.4,7.1,41.9728941844469,-87.65477170680381,"(41.9728941844469, -87.65477170680381)",2022-250113,16,31,22616.0,635,40
2022,254364,Hyatt Place Chicago,Submitted Data,28 N FRANKLIN ST,60606,3.5,False,Loop,Hotel,172519.0,2015.0,1,,53,5366499.2,9424940.3,0.0,0.0,,85.7,144.5,86.2,143.9,1207.4,7.0,41.88264999321744,-87.63547347015259,"(41.882649993217434, -87.63547347015259)",2022-254364,36,38,14914.0,92,22
2022,159005,Corliss HS -CPS,Submitted Data,821 E 103rd St,60628,1.0,False,PULLMAN,K-12 School,272651.0,1974.0,2,,15,15854884.9,9371140.1,0.0,0.0,,92.5,198.9,95.0,201.6,2586.1,9.5,41.7073909624871,-87.60307842087005,"(41.7073909624871, -87.60307842087005)",2022-159005,43,47,21861.0,254,30
2022,173884,St. Scholastica Monastery / UNO Rogers Park Elementary and High School,Submitted Data,7416 N Ridge Rd,60645,3.0,False,WEST RIDGE,K-12 School,240041.0,1865.0,1,,70,2285245.0,13585030.2,0.0,0.0,,77.8,101.3,81.7,105.4,1041.3,5.1,42.01646447464768,-87.68444132359953,"(42.01646447464768, -87.68444132359953)",2022-173884,5,20,22528.0,341,3
2022,251328,John T. Richardson Library,Submitted Data,2350 N Kenmore Ave,60614,3.0,False,LINCOLN PARK,College/University,187000.0,1990.0,1,,,5923649.7,6782658.9,0.0,0.0,,67.9,126.8,69.4,126.6,1140.5,6.1,41.92503543947551,-87.65495629783031,"(41.92503543947551, -87.65495629783031)",2022-251328,34,68,21190.0,797,16
2022,134895,The Racquet Club Chicago,Submitted Data,1357 1367 N DEARBORN ST,60610,1.0,False,NEAR NORTH SIDE,Fitness Center/Health Club/Gym,62000.0,1922.0,1,,,3426238.3,8917827.7,0.0,0.0,,199.1,305.8,205.1,308.7,925.0,14.9,41.90741981476311,-87.62994548254531,"(41.90741981476311, -87.62994548254531)",2022-134895,11,37,14926.0,17,22
2022,251526,Barry -CPS,Submitted Data,2828 N Kilbourn Ave,60641,1.5,False,HERMOSA,K-12 School,78700.0,1927.0,2,,37,1167825.2,6998869.8,0.0,0.0,,103.8,134.9,107.7,139.0,525.6,6.7,41.9325111830202,-87.73942513693042,"(41.9325111830202, -87.73942513693042)",2022-251526,17,21,22618.0,411,7
2022,173768,,Submitted Data,813 831 W WAVELAND AVE,60613,4.0,False,LAKE VIEW,Multifamily Housing,50000.0,1925.0,1,,81,1127928.4,1701038.5,0.0,0.0,,56.6,98.9,56.5,97.2,238.9,4.8,41.9490000255874,-87.65011017093353,"(41.9490000255874, -87.65011017093353)",2022-173768,25,57,21186.0,727,38
2022,118892,Parc Chestnut Condominium Association,Submitted Data,849 N Franklin St,60610,3.5,False,NEAR NORTH SIDE,Multifamily Housing,490568.0,2006.0,1,,52,11697007.2,17799778.3,0.0,0.0,,77.7,135.5,79.2,134.3,2486.1,6.5,41.89814708456634,-87.63559305841726,"(41.89814708456634, -87.63559305841726)",2022-118892,11,37,14926.0,652,41
2022,159646,,Submitted Data,337 339 W BARRY AVE,60657,1.0,False,LAKE VIEW,Multifamily Housing,128816.0,1967.0,1,,29,2922568.2,10264924.7,0.0,0.0,,111.8,160.7,117.8,164.7,930.2,7.9,41.93762926928939,-87.63837729041514,"(41.93762926928939, -87.63837729041514)",2022-159646,25,57,4449.0,683,38
2022,208356,Cameron Elementary- CPS,Submitted Data,1234 N Monticello Ave,60651,3.0,False,HUMBOLDT PARK,K-12 School,137334.0,1897.0,2,,70,1904428.2,7668249.8,0.0,0.0,,69.7,97.5,72.3,100.4,658.1,4.8,41.90378521422915,-87.71796314836531,"(41.90378521422915, -87.71796314836531)",2022-208356,49,24,4299.0,454,10
2022,251577,"Stevenson, Adlai E -CPS",Submitted Data,8010 S Kostner Ave,60652,4.0,False,ASHBURN,K-12 School,141428.0,1953.0,4,,83,3271347.2,1793050.0,0.0,0.0,,35.8,78.1,36.8,79.1,526.1,3.7,41.74711092556008,-87.73170248219492,"(41.74711092556008, -87.73170248219492)",2022-251577,30,69,4300.0,235,23
2022,101889,333 N Michigan,Submitted Data,333 N Michigan Ave,60601,3.0,False,LOOP,Office,361930.1,1928.0,1,,64,8394202.5,21360538.6,0.0,0.0,,82.2,126.9,86.5,130.1,2240.2,6.2,41.88754294139151,-87.62440700245574,"(41.88754294139151, -87.62440700245574)",2022-101889,36,38,14309.0,580,22
2022,251266,363 W Erie St,Submitted Data,363 W Erie St,60654,4.0,False,NEAR NORTH SIDE,Office,119405.0,1914.0,1,,90,2968122.0,2923997.5,0.0,0.0,,49.3,95.3,51.0,97.0,546.3,4.6,41.89383049141334,-87.63800136560666,"(41.89383049141334, -87.63800136560666)",2022-251266,36,37,4446.0,652,22
2022,162430,Providence St. Mel School,Submitted Data,119 S Central Park Blvd,60624,4.0,False,EAST GARFIELD PARK,K-12 School,187689.0,1929.0,1,,82,3177005.2,6845037.4,0.0,0.0,,53.4,85.7,54.9,87.3,782.0,4.2,41.878902061837714,-87.71568319419137,"(41.878902061837714, -87.71568319419137)",2022-162430,23,28,21572.0,783,11
2022,103661,One Magnificent Mile,Submitted Data,980 N Michigan Ave,60611,2.5,False,NEAR NORTH SIDE,Mixed Use Property,1047675.0,1983.0,1,,53,53581207.2,0.0,0.0,0.0,,52.7,147.4,53.5,149.7,7057.4,6.9,41.90080164945196,-87.6242724679302,"(41.90080164945196, -87.6242724679302)",2022-103661,36,37,21182.0,104,22
2022,160067,Intercontinental Hotel,Submitted Data,505 N Michigan Ave,60611,2.5,False,NEAR NORTH SIDE,Hotel,782000.0,1929.0,1,,58,28072532.6,62934262.7,0.0,0.0,,127.3,202.3,129.5,202.5,7040.3,9.8,41.89112059304888,-87.62398870432278,"(41.891120593048875, -87.62398870432278)",2022-160067,36,37,21182.0,159,22
2022,240557,345 Fullerton Parkway Condominium Association,Submitted Data,345 W Fullerton Pkwy,60614,4.0,False,LINCOLN PARK,Multifamily Housing,358151.0,1972.0,2,,75,5897956.0,17218827.6,0.0,0.0,,79.3,118.7,82.9,120.5,1691.4,5.8,41.92551684801328,-87.63822188971473,"(41.925516848013274, -87.63822188971473)",2022-240557,34,68,21190.0,207,51
2022,251437,Spry Community Elementary -CPS,Submitted Data,2400 S Marshall Blvd,60623,2.0,False,SOUTH LAWNDALE,K-12 School,106010.0,1889.0,2,,50,2073039.1,8077830.0,0.0,0.0,,95.8,134.8,101.0,139.4,702.1,6.6,41.84815451265938,-87.69912725261035,"(41.84815451265938, -87.69912725261035)",2022-251437,1,32,21569.0,262,29
2022,146962,,Submitted Data,1440  S WABASH AVE,60605,1.0,False,NEAR SOUTH SIDE,Multifamily Housing,75000.0,2009.0,1,,1,1083757.7,14670158.3,0.0,0.0,,252.1,295.0,252.1,295.0,921.9,14.8,41.86293172224645,-87.62587567022824,"(41.862931722246444, -87.62587567022824)",2022-146962,9,34,14913.0,374,48
2022,256671,Chantico Lofts,Submitted Data,1061 W 16th Street,nan,4.0,False,,Multifamily Housing,74104.0,2007.0,1,,86,850406.5,2370573.0,0.0,0.0,,59.5,90.0,59.7,88.2,237.9,4.4,41.859705130225294,-87.65324504550873,"(41.859705130225294, -87.65324504550873)",2022-256671,26,33,14920.0,228,8
2022,255956,,Submitted Data,465 N Park Dr,60611,4.0,False,NEAR NORTH SIDE,Multifamily Housing,592241.0,2018.0,1,,71,17211062.5,11337843.9,0.0,0.0,,53.0,111.7,53.3,110.9,2869.1,5.3,41.89052098866587,-87.61946877886683,"(41.89052098866587, -87.61946877886683)",2022-255956,36,37,21182.0,159,22
2022,244592,Harbor View Condo Association,Submitted Data,1901 S Calumet Ave,60616,3.5,False,NEAR SOUTH SIDE,Multifamily Housing,537033.0,2009.0,1,,75,11038210.8,19763183.6,0.0,0.0,,73.5,123.2,76.0,123.6,2503.6,6.0,41.85656775860116,-87.61897693757173,"(41.85656775860116, -87.61897693757173)",2022-244592,9,34,21194.0,374,48
2022,103743,33 N Dearborn,Submitted Data,33 N Dearborn St,60602,3.5,False,LOOP,Office,372135.0,1966.0,1,,77,8293520.2,15145739.3,0.0,7406004.1,,82.9,123.2,80.7,121.2,2287.1,6.1,41.88280622661767,-87.62928149568309,"(41.88280622661767, -87.62928149568309)",2022-103743,36,38,14310.0,92,22
2022,250046,"Jones College Prep, William - CPS",Submitted Data,600 S State St,60605,3.5,False,LOOP,K-12 School,383631.0,2013.0,5,,53,11313049.2,13262210.3,0.0,0.0,,64.1,118.9,64.8,119.7,2194.5,5.7,41.87454143871754,-87.62775778718853,"(41.87454143871754, -87.62775778718853)",2022-250046,10,38,14913.0,12,48
2022,173718,Shore Crest Apartments,Submitted Data,420  W WRIGHTWOOD AVE,60614,2.5,False,LINCOLN PARK,Multifamily Housing,74529.0,1919.0,1,,57,867930.2,8024803.9,0.0,0.0,,119.3,145.7,124.5,150.1,540.6,7.3,41.93119118101576,-87.64021172919766,"(41.931191181015755, -87.64021172919766)",2022-173718,34,68,21190.0,101,51
2022,113602,,Submitted Data,1209 1217 N ASTOR ST,60610,4.0,False,NEAR NORTH SIDE,Multifamily Housing,97000.0,1925.0,1,,81,1136155.7,6230897.8,0.0,0.0,,75.9,100.2,79.2,102.7,480.6,5.0,41.90428889561306,-87.62678616996178,"(41.90428889561306, -87.62678616996178)",2022-113602,34,37,14926.0,308,51
2022,251269,Century Tower,Submitted Data,182 W Lake St,60601,4.0,False,LOOP,Multifamily Housing,255605.0,1930.0,1,,75,6688540.3,10059045.5,0.0,0.0,,65.5,114.6,68.5,117.8,1415.3,5.5,41.88584048804852,-87.63341197142296,"(41.88584048804852, -87.63341197142296)",2022-251269,36,38,14309.0,92,22
2022,173488,"F.H. Paschen, S.N. Nielsen & Associates, LLC",Submitted Data,8734 W Catalpa,60656,3.5,False,OHARE,Office,112700.0,1989.0,1,,55,8199122.5,0.0,0.0,0.0,,72.8,203.7,73.1,204.6,1079.9,9.6,41.97925512294133,-87.84539909327289,"(41.97925512294133, -87.84539909327289)",2022-173488,29,75,4448.0,64,34
2022,256411,,Submitted Data,303 E Chicago Ave,60611,2.0,False,NEAR NORTH SIDE,Laboratory,303490.0,1925.0,1,,,23616397.3,67409460.0,0.0,0.0,,299.9,451.1,302.3,448.8,6691.1,22.0,41.896680409679945,-87.62012822189753,"(41.896680409679945, -87.62012822189753)",2022-256411,11,37,21182.0,158,22
2022,254056,The Montrevelle Condominium Association,Submitted Data,520 N Halsted St,60642,2.5,False,West Town,Multifamily Housing,114625.0,2003.0,1,,34,3519080.3,5991942.6,0.0,0.0,,86.5,146.9,87.3,145.6,781.8,7.1,41.89188848509332,-87.6477646275495,"(41.89188848509332, -87.6477646275495)",2022-254056,46,25,22620.0,522,41
2022,239016,,Submitted Data,160 E Illinois St,60611,3.0,False,NEAR NORTH SIDE,Multifamily Housing,324707.0,2007.0,1,,66,7132724.9,9155993.1,0.0,0.0,,63.0,114.4,64.3,114.7,1425.8,5.5,41.89106417811573,-87.62291792491408,"(41.891064178115734, -87.62291792491408)",2022-239016,36,37,21182.0,159,22
2022,250137,Club Quarters,Submitted Data,75 E Wacker Dr,60601,3.5,False,LOOP,Hotel,178845.0,1928.0,1,,74,6745599.2,7749200.0,0.0,0.0,,81.0,151.1,80.8,148.0,1300.1,7.3,41.88786189172989,-87.62541304135654,"(41.88786189172989, -87.62541304135654)",2022-250137,36,38,14309.0,580,22
2022,252047,Saieh Hall for Economics,Submitted Data,5757 S University Ave,60637,3.0,False,HYDE PARK,College/University,153115.0,2013.0,1,,,3558509.8,19485.0,8042091.5,4691147.9,,106.5,156.3,104.4,154.9,1250.9,8.2,41.78975804680648,-87.59789008684548,"(41.789758046806476, -87.59789008684548)",2022-252047,33,8,22260.0,154,32
2022,111978,,Submitted Data,2920 2926 N COMMONWEALTH AVE,60657,3.0,False,LAKE VIEW,Multifamily Housing,78400.0,1929.0,1,,50,1068423.3,6179700.8,0.0,0.0,,92.5,120.9,97.7,125.0,469.0,6.0,41.93501346318206,-87.63816670109618,"(41.93501346318206, -87.63816670109618)",2022-111978,25,57,4449.0,153,38
2022,165353,Jewel at South Loop Marketplace,Submitted Data,1340 S CANAL ST,60607,3.0,False,NEAR WEST SIDE,Supermarket/Grocery Store,71373.0,2013.0,1,,63,8888832.8,12942298.9,0.0,0.0,,305.9,539.1,320.9,554.9,1858.2,26.0,41.864521193743535,-87.63930409963562,"(41.864521193743535, -87.63930409963562)",2022-165353,48,29,14917.0,97,48
2022,253954,Crilly Court Condominium Association,Submitted Data,1717 N Crilly Ct,60614,4.0,False,LINCOLN PARK,Multifamily Housing,65211.0,1891.0,1,,92,1029293.5,3342502.9,0.0,0.0,,67.0,98.0,68.6,99.7,313.1,4.8,41.91339185368522,-87.63562447535212,"(41.91339185368522, -87.63562447535212)",2022-253954,34,68,21190.0,271,51
2022,254527,Strand Apartments,Submitted Data,6321 S Cottage Grove Ave,60637,4.0,False,WOODLAWN,Multifamily Housing,96275.0,2015.0,1,,100,1072571.7,1364169.6,0.0,0.0,,27.9,50.8,28.7,51.6,213.7,2.4,41.77975730359677,-87.60576962549939,"(41.77975730359677, -87.60576962549939)",2022-254527,4,9,22260.0,347,53
2022,116876,,Submitted Data,3720  W ARMITAGE AVE,60647,1.0,False,LOGAN SQUARE,Multifamily Housing,85742.0,2006.0,2,,16,4970751.3,2199600.0,0.0,0.0,,84.2,189.9,86.3,193.1,771.5,9.0,41.91735291076359,-87.72006847919312,"(41.91735291076359, -87.72006847919312)",2022-116876,49,23,22535.0,73,10
2022,119450,"Target,  Chicago Near North (0942)",Submitted Data,2656 N Elston Ave,60647,3.5,False,LOGAN SQUARE,Retail Store,513257.0,1994.0,1,,71,9396947.8,9221900.2,0.0,0.0,,100.6,194.6,103.4,195.3,1727.5,9.3,41.929848996596895,-87.684643783527,"(41.929848996596895, -87.684643783527)",2022-119450,41,23,22535.0,240,24
2022,101812,One North Dearborn,Submitted Data,1 N Dearborn St,60602,4.0,False,LOOP,Office,1088373.0,1904.0,1,,84,36206112.8,4741.4,0.0,11589564.2,,43.9,102.8,43.2,103.2,5379.9,4.9,41.88202980644916,-87.62925644446256,"(41.88202980644916, -87.62925644446256)",2022-101812,36,38,14311.0,92,22
2022,173948,Home Depot Store #8598,Submitted Data,6211 N LINCOLN AVE,60659,4.0,False,NORTH PARK,Retail Store,114727.0,2004.0,1,,70,4587182.3,5063757.6,0.0,0.0,,84.1,158.3,85.2,157.8,873.2,7.6,41.99481704318551,-87.71434276828107,"(41.99481704318551, -87.71434276828107)",2022-173948,27,13,4450.0,747,42
2022,105938,Harper Court,Submitted Data,5235 S Harper Ct,60615,1.5,False,HYDE PARK,Office,431390.0,2013.0,1,,36,17219540.8,7139272.0,0.0,0.0,,105.3,240.9,104.5,237.1,2647.3,11.4,41.80000437101491,-87.58808569506616,"(41.80000437101491, -87.58808569506616)",2022-105938,10,8,21192.0,500,1
2022,127778,Ridge Place Apartments,Submitted Data,7115 7129 N RIDGE BLVD,60645,3.0,False,ROGERS PARK,Multifamily Housing,51524.0,1960.0,1,,,492296.9,3579700.1,0.0,0.0,,79.0,99.7,81.1,101.2,255.0,4.9,42.01171252818545,-87.6827185035026,"(42.01171252818545, -87.6827185035026)",2022-127778,5,10,22528.0,44,3
